{
"type": "FeatureCollection",
"name": "EnergySources-820",
"crs": { "type": "name", "properties": { "name": "urn:ogc:def:crs:OGC:1.3:CRS84" } },
"features": [
{ "type": "Feature", "properties": { "OBJECTID": 2, "Latitude": 46.153955, "Longitude": -123.40658, "Power_Source__group_": "Biomass", "Utility_Name__group_": "Independent Power Producers", "Plant_Name": "Georgia-Pacific Wauna Mill", "Nameplate_Capacity": 36.0, "Net_Generation_MWh": 151247.0, "Source_Type": 2 }, "geometry": { "type": "Point", "coordinates": [ -123.40658, 46.153955 ] } },
{ "type": "Feature", "properties": { "OBJECTID": 3, "Latitude": 45.693182, "Longitude": -119.808819, "Power_Source__group_": "Other Fuels", "Utility_Name__group_": "Portland General Electric", "Plant_Name": "Boardman", "Nameplate_Capacity": 450.0, "Net_Generation_MWh": null, "Source_Type": 6 }, "geometry": { "type": "Point", "coordinates": [ -119.808819, 45.693182 ] } },
{ "type": "Feature", "properties": { "OBJECTID": 4, "Latitude": 45.698611, "Longitude": -119.813056, "Power_Source__group_": "Other Fuels", "Utility_Name__group_": "Portland General Electric", "Plant_Name": "Carty Generating Station", "Nameplate_Capacity": 500.0, "Net_Generation_MWh": null, "Source_Type": 6 }, "geometry": { "type": "Point", "coordinates": [ -119.813056, 45.698611 ] } },
{ "type": "Feature", "properties": { "OBJECTID": 5, "Latitude": 44.694374, "Longitude": -121.231379, "Power_Source__group_": "Other Fuels", "Utility_Name__group_": "Portland General Electric", "Plant_Name": "Pelton", "Nameplate_Capacity": 109.8, "Net_Generation_MWh": null, "Source_Type": 6 }, "geometry": { "type": "Point", "coordinates": [ -121.231379, 44.694374 ] } },
{ "type": "Feature", "properties": { "OBJECTID": 6, "Latitude": 44.605837, "Longitude": -121.277334, "Power_Source__group_": "Other Fuels", "Utility_Name__group_": "Portland General Electric", "Plant_Name": "Round Butte", "Nameplate_Capacity": 372.5, "Net_Generation_MWh": null, "Source_Type": 8 }, "geometry": { "type": "Point", "coordinates": [ -121.277334, 44.605837 ] } },
{ "type": "Feature", "properties": { "OBJECTID": 7, "Latitude": 45.122009, "Longitude": -122.06987, "Power_Source__group_": "Hydro", "Utility_Name__group_": "Portland General Electric", "Plant_Name": "Oak Grove", "Nameplate_Capacity": 51.0, "Net_Generation_MWh": null, "Source_Type": 6 }, "geometry": { "type": "Point", "coordinates": [ -122.06987, 45.122009 ] } },
{ "type": "Feature", "properties": { "OBJECTID": 8, "Latitude": 45.243287, "Longitude": -122.27995, "Power_Source__group_": "Other Fuels", "Utility_Name__group_": "Portland General Electric", "Plant_Name": "North Fork", "Nameplate_Capacity": 40.8, "Net_Generation_MWh": null, "Source_Type": 6 }, "geometry": { "type": "Point", "coordinates": [ -122.27995, 45.243287 ] } },
{ "type": "Feature", "properties": { "OBJECTID": 9, "Latitude": 45.268045, "Longitude": -122.32009, "Power_Source__group_": "Other Fuels", "Utility_Name__group_": "Portland General Electric", "Plant_Name": "Faraday", "Nameplate_Capacity": 19.2, "Net_Generation_MWh": null, "Source_Type": 6 }, "geometry": { "type": "Point", "coordinates": [ -122.32009, 45.268045 ] } },
{ "type": "Feature", "properties": { "OBJECTID": 10, "Latitude": 45.299991, "Longitude": -122.350023, "Power_Source__group_": "Other Fuels", "Utility_Name__group_": "Portland General Electric", "Plant_Name": "River Mill", "Nameplate_Capacity": 18.8, "Net_Generation_MWh": null, "Source_Type": 6 }, "geometry": { "type": "Point", "coordinates": [ -122.350023, 45.299991 ] } },
{ "type": "Feature", "properties": { "OBJECTID": 11, "Latitude": 45.354004, "Longitude": -122.618954, "Power_Source__group_": "Other Fuels", "Utility_Name__group_": "Portland General Electric", "Plant_Name": "Sullivan", "Nameplate_Capacity": 15.4, "Net_Generation_MWh": null, "Source_Type": 6 }, "geometry": { "type": "Point", "coordinates": [ -122.618954, 45.354004 ] } },
{ "type": "Feature", "properties": { "OBJECTID": 12, "Latitude": 46.178889, "Longitude": -123.171944, "Power_Source__group_": "Other Fuels", "Utility_Name__group_": "Portland General Electric", "Plant_Name": "Port Westward Unit 2", "Nameplate_Capacity": 225.6, "Net_Generation_MWh": null, "Source_Type": 6 }, "geometry": { "type": "Point", "coordinates": [ -123.171944, 46.178889 ] } },
{ "type": "Feature", "properties": { "OBJECTID": 13, "Latitude": 46.172401, "Longitude": -123.17392, "Power_Source__group_": "Other Fuels", "Utility_Name__group_": "Portland General Electric", "Plant_Name": "Beaver", "Nameplate_Capacity": 610.7, "Net_Generation_MWh": null, "Source_Type": 6 }, "geometry": { "type": "Point", "coordinates": [ -123.17392, 46.172401 ] } },
{ "type": "Feature", "properties": { "OBJECTID": 14, "Latitude": 45.266702, "Longitude": -117.212732, "Power_Source__group_": "Other Fuels", "Utility_Name__group_": "PacifiCorp/Pacific Power", "Plant_Name": "Wallowa Falls", "Nameplate_Capacity": 1.1, "Net_Generation_MWh": null, "Source_Type": 6 }, "geometry": { "type": "Point", "coordinates": [ -117.212732, 45.266702 ] } },
{ "type": "Feature", "properties": { "OBJECTID": 15, "Latitude": 45.652457, "Longitude": -120.209783, "Power_Source__group_": "Other Fuels", "Utility_Name__group_": "PacifiCorp/Pacific Power", "Plant_Name": "Leaning Juniper", "Nameplate_Capacity": 110.4, "Net_Generation_MWh": null, "Source_Type": 6 }, "geometry": { "type": "Point", "coordinates": [ -120.209783, 45.652457 ] } },
{ "type": "Feature", "properties": { "OBJECTID": 17, "Latitude": 44.062326, "Longitude": -121.313331, "Power_Source__group_": "Other Fuels", "Utility_Name__group_": "PacifiCorp/Pacific Power", "Plant_Name": "Bend", "Nameplate_Capacity": 1.1, "Net_Generation_MWh": null, "Source_Type": 6 }, "geometry": { "type": "Point", "coordinates": [ -121.313331, 44.062326 ] } },
{ "type": "Feature", "properties": { "OBJECTID": 19, "Latitude": 42.224847, "Longitude": -121.795496, "Power_Source__group_": "Other Fuels", "Utility_Name__group_": "PacifiCorp/Pacific Power", "Plant_Name": "East Side", "Nameplate_Capacity": 3.2, "Net_Generation_MWh": null, "Source_Type": 6 }, "geometry": { "type": "Point", "coordinates": [ -121.795496, 42.224847 ] } },
{ "type": "Feature", "properties": { "OBJECTID": 20, "Latitude": 42.093611, "Longitude": -122.0703, "Power_Source__group_": "Other Fuels", "Utility_Name__group_": "PacifiCorp/Pacific Power", "Plant_Name": "John C Boyle", "Nameplate_Capacity": 98.7, "Net_Generation_MWh": null, "Source_Type": 6 }, "geometry": { "type": "Point", "coordinates": [ -122.0703, 42.093611 ] } },
{ "type": "Feature", "properties": { "OBJECTID": 21, "Latitude": 43.3558, "Longitude": -122.2494, "Power_Source__group_": "Other Fuels", "Utility_Name__group_": "PacifiCorp/Pacific Power", "Plant_Name": "Lemolo 1", "Nameplate_Capacity": 32.0, "Net_Generation_MWh": null, "Source_Type": 6 }, "geometry": { "type": "Point", "coordinates": [ -122.2494, 43.3558 ] } },
{ "type": "Feature", "properties": { "OBJECTID": 22, "Latitude": 43.251244, "Longitude": -122.337924, "Power_Source__group_": "Other Fuels", "Utility_Name__group_": "PacifiCorp/Pacific Power", "Plant_Name": "Clearwater 1", "Nameplate_Capacity": 15.0, "Net_Generation_MWh": null, "Source_Type": 6 }, "geometry": { "type": "Point", "coordinates": [ -122.337924, 43.251244 ] } },
{ "type": "Feature", "properties": { "OBJECTID": 23, "Latitude": 43.280611, "Longitude": -122.40248, "Power_Source__group_": "Other Fuels", "Utility_Name__group_": "PacifiCorp/Pacific Power", "Plant_Name": "Lemolo 2", "Nameplate_Capacity": 38.5, "Net_Generation_MWh": null, "Source_Type": 6 }, "geometry": { "type": "Point", "coordinates": [ -122.40248, 43.280611 ] } },
{ "type": "Feature", "properties": { "OBJECTID": 24, "Latitude": 43.266894, "Longitude": -122.409807, "Power_Source__group_": "Other Fuels", "Utility_Name__group_": "PacifiCorp/Pacific Power", "Plant_Name": "Clearwater 2", "Nameplate_Capacity": 26.0, "Net_Generation_MWh": null, "Source_Type": 6 }, "geometry": { "type": "Point", "coordinates": [ -122.409807, 43.266894 ] } },
{ "type": "Feature", "properties": { "OBJECTID": 25, "Latitude": 42.730606, "Longitude": -122.41846, "Power_Source__group_": "Other Fuels", "Utility_Name__group_": "PacifiCorp/Pacific Power", "Plant_Name": "Prospect 3", "Nameplate_Capacity": 7.2, "Net_Generation_MWh": null, "Source_Type": 6 }, "geometry": { "type": "Point", "coordinates": [ -122.41846, 42.730606 ] } },
{ "type": "Feature", "properties": { "OBJECTID": 26, "Latitude": 43.272729, "Longitude": -122.447498, "Power_Source__group_": "Other Fuels", "Utility_Name__group_": "PacifiCorp/Pacific Power", "Plant_Name": "Toketee Falls", "Nameplate_Capacity": 42.6, "Net_Generation_MWh": null, "Source_Type": 6 }, "geometry": { "type": "Point", "coordinates": [ -122.447498, 43.272729 ] } },
{ "type": "Feature", "properties": { "OBJECTID": 27, "Latitude": 43.274221, "Longitude": -122.448978, "Power_Source__group_": "Other Fuels", "Utility_Name__group_": "PacifiCorp/Pacific Power", "Plant_Name": "Fish Creek", "Nameplate_Capacity": 11.0, "Net_Generation_MWh": null, "Source_Type": 6 }, "geometry": { "type": "Point", "coordinates": [ -122.448978, 43.274221 ] } },
{ "type": "Feature", "properties": { "OBJECTID": 28, "Latitude": 43.2939, "Longitude": -122.4728, "Power_Source__group_": "Other Fuels", "Utility_Name__group_": "PacifiCorp/Pacific Power", "Plant_Name": "Slide Creek", "Nameplate_Capacity": 18.0, "Net_Generation_MWh": null, "Source_Type": 6 }, "geometry": { "type": "Point", "coordinates": [ -122.4728, 43.2939 ] } },
{ "type": "Feature", "properties": { "OBJECTID": 29, "Latitude": 43.3061, "Longitude": -122.5014, "Power_Source__group_": "Other Fuels", "Utility_Name__group_": "PacifiCorp/Pacific Power", "Plant_Name": "Soda Springs", "Nameplate_Capacity": 11.0, "Net_Generation_MWh": null, "Source_Type": 6 }, "geometry": { "type": "Point", "coordinates": [ -122.5014, 43.3061 ] } },
{ "type": "Feature", "properties": { "OBJECTID": 30, "Latitude": 42.731237, "Longitude": -122.513974, "Power_Source__group_": "Other Fuels", "Utility_Name__group_": "PacifiCorp/Pacific Power", "Plant_Name": "Prospect 2", "Nameplate_Capacity": 32.0, "Net_Generation_MWh": null, "Source_Type": 6 }, "geometry": { "type": "Point", "coordinates": [ -122.513974, 42.731237 ] } },
{ "type": "Feature", "properties": { "OBJECTID": 31, "Latitude": 42.733073, "Longitude": -122.515079, "Power_Source__group_": "Other Fuels", "Utility_Name__group_": "PacifiCorp/Pacific Power", "Plant_Name": "Prospect 4", "Nameplate_Capacity": 1.0, "Net_Generation_MWh": null, "Source_Type": 6 }, "geometry": { "type": "Point", "coordinates": [ -122.515079, 42.733073 ] } },
{ "type": "Feature", "properties": { "OBJECTID": 32, "Latitude": 42.730717, "Longitude": -122.515122, "Power_Source__group_": "Other Fuels", "Utility_Name__group_": "PacifiCorp/Pacific Power", "Plant_Name": "Prospect 1", "Nameplate_Capacity": 3.8, "Net_Generation_MWh": null, "Source_Type": 6 }, "geometry": { "type": "Point", "coordinates": [ -122.515122, 42.730717 ] } },
{ "type": "Feature", "properties": { "OBJECTID": 33, "Latitude": 42.514575, "Longitude": -122.757062, "Power_Source__group_": "Other Fuels", "Utility_Name__group_": "PacifiCorp/Pacific Power", "Plant_Name": "Eagle Point", "Nameplate_Capacity": 2.8, "Net_Generation_MWh": null, "Source_Type": 6 }, "geometry": { "type": "Point", "coordinates": [ -122.757062, 42.514575 ] } },
{ "type": "Feature", "properties": { "OBJECTID": 34, "Latitude": 45.943, "Longitude": -118.591, "Power_Source__group_": "Other Fuels", "Utility_Name__group_": "Independent Power Producers", "Plant_Name": "*", "Nameplate_Capacity": 109.1, "Net_Generation_MWh": null, "Source_Type": 6 }, "geometry": { "type": "Point", "coordinates": [ -118.591, 45.943 ] } },
{ "type": "Feature", "properties": { "OBJECTID": 35, "Latitude": 45.936157, "Longitude": -118.65999, "Power_Source__group_": "Other Fuels", "Utility_Name__group_": "Independent Power Producers", "Plant_Name": "Vansycle", "Nameplate_Capacity": 25.0, "Net_Generation_MWh": null, "Source_Type": 6 }, "geometry": { "type": "Point", "coordinates": [ -118.65999, 45.936157 ] } },
{ "type": "Feature", "properties": { "OBJECTID": 36, "Latitude": 44.458696, "Longitude": -118.720601, "Power_Source__group_": "Other Fuels", "Utility_Name__group_": "Independent Power Producers", "Plant_Name": "Co-Gen LLC", "Nameplate_Capacity": 7.5, "Net_Generation_MWh": null, "Source_Type": 6 }, "geometry": { "type": "Point", "coordinates": [ -118.720601, 44.458696 ] } },
{ "type": "Feature", "properties": { "OBJECTID": 37, "Latitude": 46.01279, "Longitude": -118.816246, "Power_Source__group_": "Other Fuels", "Utility_Name__group_": "Independent Power Producers", "Plant_Name": "FPL Energy Vansycle LLC (OR)", "Nameplate_Capacity": 122.8, "Net_Generation_MWh": null, "Source_Type": 6 }, "geometry": { "type": "Point", "coordinates": [ -118.816246, 46.01279 ] } },
{ "type": "Feature", "properties": { "OBJECTID": 39, "Latitude": 45.917, "Longitude": -119.343, "Power_Source__group_": "Other Fuels", "Utility_Name__group_": "Independent Power Producers", "Plant_Name": "NorWest Energy 9 LLC", "Nameplate_Capacity": 6.0, "Net_Generation_MWh": null, "Source_Type": 6 }, "geometry": { "type": "Point", "coordinates": [ -119.343, 45.917 ] } },
{ "type": "Feature", "properties": { "OBJECTID": 40, "Latitude": 45.7017, "Longitude": -119.4222, "Power_Source__group_": "Other Fuels", "Utility_Name__group_": "Independent Power Producers", "Plant_Name": "Butter Creek Power LLC", "Nameplate_Capacity": 5.0, "Net_Generation_MWh": null, "Source_Type": 6 }, "geometry": { "type": "Point", "coordinates": [ -119.4222, 45.7017 ] } },
{ "type": "Feature", "properties": { "OBJECTID": 41, "Latitude": 45.6531, "Longitude": -119.4625, "Power_Source__group_": "Other Fuels", "Utility_Name__group_": "Independent Power Producers", "Plant_Name": "Wagon Trail LLC", "Nameplate_Capacity": 3.3, "Net_Generation_MWh": null, "Source_Type": 6 }, "geometry": { "type": "Point", "coordinates": [ -119.4625, 45.6531 ] } },
{ "type": "Feature", "properties": { "OBJECTID": 42, "Latitude": 45.655, "Longitude": -119.4647, "Power_Source__group_": "Other Fuels", "Utility_Name__group_": "Independent Power Producers", "Plant_Name": "Big Top LLC", "Nameplate_Capacity": 1.7, "Net_Generation_MWh": null, "Source_Type": 6 }, "geometry": { "type": "Point", "coordinates": [ -119.4647, 45.655 ] } },
{ "type": "Feature", "properties": { "OBJECTID": 43, "Latitude": 45.6758, "Longitude": -119.9375, "Power_Source__group_": "Other Fuels", "Utility_Name__group_": "Independent Power Producers", "Plant_Name": "Threemile Canyon", "Nameplate_Capacity": 9.9, "Net_Generation_MWh": null, "Source_Type": 6 }, "geometry": { "type": "Point", "coordinates": [ -119.9375, 45.6758 ] } },
{ "type": "Feature", "properties": { "OBJECTID": 44, "Latitude": 45.6533, "Longitude": -119.9914, "Power_Source__group_": "Other Fuels", "Utility_Name__group_": "Independent Power Producers", "Plant_Name": "Willow Creek Energy Center", "Nameplate_Capacity": 72.0, "Net_Generation_MWh": null, "Source_Type": 6 }, "geometry": { "type": "Point", "coordinates": [ -119.9914, 45.6533 ] } },
{ "type": "Feature", "properties": { "OBJECTID": 45, "Latitude": 42.188889, "Longitude": -120.679166, "Power_Source__group_": "Other Fuels", "Utility_Name__group_": "Independent Power Producers", "Plant_Name": "Lakeview Cogeneration LLC", "Nameplate_Capacity": null, "Net_Generation_MWh": null, "Source_Type": 6 }, "geometry": { "type": "Point", "coordinates": [ -120.679166, 42.188889 ] } },
{ "type": "Feature", "properties": { "OBJECTID": 46, "Latitude": 44.061, "Longitude": -121.228, "Power_Source__group_": "Other Fuels", "Utility_Name__group_": "Independent Power Producers", "Plant_Name": "OSLH, LLC", "Nameplate_Capacity": 9.9, "Net_Generation_MWh": null, "Source_Type": 6 }, "geometry": { "type": "Point", "coordinates": [ -121.228, 44.061 ] } },
{ "type": "Feature", "properties": { "OBJECTID": 47, "Latitude": 44.724242, "Longitude": -121.247729, "Power_Source__group_": "Other Fuels", "Utility_Name__group_": "Independent Power Producers", "Plant_Name": "Warm Springs Power Enterprises", "Nameplate_Capacity": 19.6, "Net_Generation_MWh": null, "Source_Type": 6 }, "geometry": { "type": "Point", "coordinates": [ -121.247729, 44.724242 ] } },
{ "type": "Feature", "properties": { "OBJECTID": 49, "Latitude": 42.695, "Longitude": -121.614, "Power_Source__group_": "Other Fuels", "Utility_Name__group_": "Independent Power Producers", "Plant_Name": "NorWest Energy 4, LLC", "Nameplate_Capacity": 5.6, "Net_Generation_MWh": null, "Source_Type": 6 }, "geometry": { "type": "Point", "coordinates": [ -121.614, 42.695 ] } },
{ "type": "Feature", "properties": { "OBJECTID": 50, "Latitude": 42.254167, "Longitude": -121.785, "Power_Source__group_": "Other Fuels", "Utility_Name__group_": "Independent Power Producers", "Plant_Name": "Oregon University System OIT Klamath Falls", "Nameplate_Capacity": 2.0, "Net_Generation_MWh": null, "Source_Type": 6 }, "geometry": { "type": "Point", "coordinates": [ -121.785, 42.254167 ] } },
{ "type": "Feature", "properties": { "OBJECTID": 51, "Latitude": 42.172718, "Longitude": -121.814393, "Power_Source__group_": "Other Fuels", "Utility_Name__group_": "Independent Power Producers", "Plant_Name": "Klamath Expansion Project", "Nameplate_Capacity": 117.6, "Net_Generation_MWh": null, "Source_Type": 6 }, "geometry": { "type": "Point", "coordinates": [ -121.814393, 42.172718 ] } },
{ "type": "Feature", "properties": { "OBJECTID": 52, "Latitude": 45.481708, "Longitude": -122.083188, "Power_Source__group_": "Other Fuels", "Utility_Name__group_": "Independent Power Producers", "Plant_Name": "PHP 1", "Nameplate_Capacity": 23.7, "Net_Generation_MWh": null, "Source_Type": 6 }, "geometry": { "type": "Point", "coordinates": [ -122.083188, 45.481708 ] } },
{ "type": "Feature", "properties": { "OBJECTID": 53, "Latitude": 45.448977, "Longitude": -122.151257, "Power_Source__group_": "Other Fuels", "Utility_Name__group_": "Independent Power Producers", "Plant_Name": "PHP 2", "Nameplate_Capacity": 11.8, "Net_Generation_MWh": null, "Source_Type": 6 }, "geometry": { "type": "Point", "coordinates": [ -122.151257, 45.448977 ] } },
{ "type": "Feature", "properties": { "OBJECTID": 54, "Latitude": 44.396815, "Longitude": -122.350246, "Power_Source__group_": "Other Fuels", "Utility_Name__group_": "Independent Power Producers", "Plant_Name": "Falls Creek", "Nameplate_Capacity": 4.1, "Net_Generation_MWh": null, "Source_Type": 6 }, "geometry": { "type": "Point", "coordinates": [ -122.350246, 44.396815 ] } },
{ "type": "Feature", "properties": { "OBJECTID": 55, "Latitude": 45.555833, "Longitude": -122.494722, "Power_Source__group_": "Other Fuels", "Utility_Name__group_": "Independent Power Producers", "Plant_Name": "Ground Water Pumping Station", "Nameplate_Capacity": null, "Net_Generation_MWh": null, "Source_Type": 6 }, "geometry": { "type": "Point", "coordinates": [ -122.494722, 45.555833 ] } },
{ "type": "Feature", "properties": { "OBJECTID": 56, "Latitude": 45.528457, "Longitude": -122.66317, "Power_Source__group_": "Other Fuels", "Utility_Name__group_": "Independent Power Producers", "Plant_Name": "Oregon Convention Center", "Nameplate_Capacity": 1.4, "Net_Generation_MWh": null, "Source_Type": 6 }, "geometry": { "type": "Point", "coordinates": [ -122.66317, 45.528457 ] } },
{ "type": "Feature", "properties": { "OBJECTID": 57, "Latitude": 42.3844, "Longitude": -122.7718, "Power_Source__group_": "Other Fuels", "Utility_Name__group_": "Independent Power Producers", "Plant_Name": "Dry Creek LFG to Energy Project", "Nameplate_Capacity": 3.2, "Net_Generation_MWh": null, "Source_Type": 6 }, "geometry": { "type": "Point", "coordinates": [ -122.7718, 42.3844 ] } },
{ "type": "Feature", "properties": { "OBJECTID": 58, "Latitude": 42.355517, "Longitude": -122.904642, "Power_Source__group_": "Other Fuels", "Utility_Name__group_": "Independent Power Producers", "Plant_Name": "Medford Operation", "Nameplate_Capacity": 8.5, "Net_Generation_MWh": null, "Source_Type": 6 }, "geometry": { "type": "Point", "coordinates": [ -122.904642, 42.355517 ] } },
{ "type": "Feature", "properties": { "OBJECTID": 59, "Latitude": 44.0569, "Longitude": -122.9555, "Power_Source__group_": "Other Fuels", "Utility_Name__group_": "Independent Power Producers", "Plant_Name": "IP Springfield Oregon", "Nameplate_Capacity": 65.0, "Net_Generation_MWh": null, "Source_Type": 6 }, "geometry": { "type": "Point", "coordinates": [ -122.9555, 44.0569 ] } },
{ "type": "Feature", "properties": { "OBJECTID": 60, "Latitude": 45.048467, "Longitude": -122.962761, "Power_Source__group_": "Other Fuels", "Utility_Name__group_": "Independent Power Producers", "Plant_Name": "Covanta Marion Inc", "Nameplate_Capacity": 13.1, "Net_Generation_MWh": 64989.0, "Source_Type": 6 }, "geometry": { "type": "Point", "coordinates": [ -122.962761, 45.048467 ] } },
{ "type": "Feature", "properties": { "OBJECTID": 61, "Latitude": 45.00812, "Longitude": -123.05286, "Power_Source__group_": "Other Fuels", "Utility_Name__group_": "Independent Power Producers", "Plant_Name": "WLWPCF Cogeneration Facility", "Nameplate_Capacity": 1.2, "Net_Generation_MWh": null, "Source_Type": 6 }, "geometry": { "type": "Point", "coordinates": [ -123.05286, 45.00812 ] } },
{ "type": "Feature", "properties": { "OBJECTID": 62, "Latitude": 44.048333, "Longitude": -123.073889, "Power_Source__group_": "Other Fuels", "Utility_Name__group_": "Independent Power Producers", "Plant_Name": "Univ of Oregon Central Power Station", "Nameplate_Capacity": 11.0, "Net_Generation_MWh": null, "Source_Type": 6 }, "geometry": { "type": "Point", "coordinates": [ -123.073889, 44.048333 ] } },
{ "type": "Feature", "properties": { "OBJECTID": 63, "Latitude": 42.8489, "Longitude": -123.1778, "Power_Source__group_": "Other Fuels", "Utility_Name__group_": "Independent Power Producers", "Plant_Name": "Galesville Project", "Nameplate_Capacity": 1.6, "Net_Generation_MWh": null, "Source_Type": 6 }, "geometry": { "type": "Point", "coordinates": [ -123.1778, 42.8489 ] } },
{ "type": "Feature", "properties": { "OBJECTID": 64, "Latitude": 44.116306, "Longitude": -123.179007, "Power_Source__group_": "Other Fuels", "Utility_Name__group_": "Independent Power Producers", "Plant_Name": "Seneca Sustainable Energy LLC", "Nameplate_Capacity": 19.8, "Net_Generation_MWh": null, "Source_Type": 6 }, "geometry": { "type": "Point", "coordinates": [ -123.179007, 44.116306 ] } },
{ "type": "Feature", "properties": { "OBJECTID": 65, "Latitude": 44.183526, "Longitude": -123.200454, "Power_Source__group_": "Other Fuels", "Utility_Name__group_": "Independent Power Producers", "Plant_Name": "Shell New Energies, Junction City", "Nameplate_Capacity": 1.6, "Net_Generation_MWh": null, "Source_Type": 6 }, "geometry": { "type": "Point", "coordinates": [ -123.200454, 44.183526 ] } },
{ "type": "Feature", "properties": { "OBJECTID": 66, "Latitude": 44.6969, "Longitude": -123.2234, "Power_Source__group_": "Other Fuels", "Utility_Name__group_": "Independent Power Producers", "Plant_Name": "Coffin Butte", "Nameplate_Capacity": 5.6, "Net_Generation_MWh": null, "Source_Type": 6 }, "geometry": { "type": "Point", "coordinates": [ -123.2234, 44.6969 ] } },
{ "type": "Feature", "properties": { "OBJECTID": 67, "Latitude": 44.573484, "Longitude": -123.31695, "Power_Source__group_": "Other Fuels", "Utility_Name__group_": "Independent Power Producers", "Plant_Name": "Oregon University System Rabbit Field", "Nameplate_Capacity": 1.2, "Net_Generation_MWh": null, "Source_Type": 6 }, "geometry": { "type": "Point", "coordinates": [ -123.31695, 44.573484 ] } },
{ "type": "Feature", "properties": { "OBJECTID": 68, "Latitude": 42.961126, "Longitude": -123.359138, "Power_Source__group_": "Other Fuels", "Utility_Name__group_": "Independent Power Producers", "Plant_Name": "Co-Gen II LLC", "Nameplate_Capacity": 7.5, "Net_Generation_MWh": null, "Source_Type": 6 }, "geometry": { "type": "Point", "coordinates": [ -123.359138, 42.961126 ] } },
{ "type": "Feature", "properties": { "OBJECTID": 69, "Latitude": 43.2898, "Longitude": -123.361638, "Power_Source__group_": "Other Fuels", "Utility_Name__group_": "Independent Power Producers", "Plant_Name": "Douglas County Forest Products", "Nameplate_Capacity": 6.3, "Net_Generation_MWh": null, "Source_Type": 6 }, "geometry": { "type": "Point", "coordinates": [ -123.361638, 43.2898 ] } },
{ "type": "Feature", "properties": { "OBJECTID": 70, "Latitude": 43.186111, "Longitude": -123.380278, "Power_Source__group_": "Other Fuels", "Utility_Name__group_": "Independent Power Producers", "Plant_Name": "Roseburg LFG", "Nameplate_Capacity": 1.6, "Net_Generation_MWh": null, "Source_Type": 6 }, "geometry": { "type": "Point", "coordinates": [ -123.380278, 43.186111 ] } },
{ "type": "Feature", "properties": { "OBJECTID": 71, "Latitude": 43.0895, "Longitude": -123.4156, "Power_Source__group_": "Other Fuels", "Utility_Name__group_": "Independent Power Producers", "Plant_Name": "Dillard Complex", "Nameplate_Capacity": 51.5, "Net_Generation_MWh": null, "Source_Type": 6 }, "geometry": { "type": "Point", "coordinates": [ -123.4156, 43.0895 ] } },
{ "type": "Feature", "properties": { "OBJECTID": 72, "Latitude": 44.611944, "Longitude": -123.931944, "Power_Source__group_": "Other Fuels", "Utility_Name__group_": "Independent Power Producers", "Plant_Name": "Georgia-Pacific Toledo Mill", "Nameplate_Capacity": 37.3, "Net_Generation_MWh": null, "Source_Type": 6 }, "geometry": { "type": "Point", "coordinates": [ -123.931944, 44.611944 ] } },
{ "type": "Feature", "properties": { "OBJECTID": 73, "Latitude": 45.2439, "Longitude": -116.7008, "Power_Source__group_": "Other Fuels", "Utility_Name__group_": "Idaho Power", "Plant_Name": "Hells Canyon", "Nameplate_Capacity": 391.5, "Net_Generation_MWh": null, "Source_Type": 6 }, "geometry": { "type": "Point", "coordinates": [ -116.7008, 45.2439 ] } },
{ "type": "Feature", "properties": { "OBJECTID": 74, "Latitude": 44.971643, "Longitude": -116.835042, "Power_Source__group_": "Other Fuels", "Utility_Name__group_": "Idaho Power", "Plant_Name": "Oxbow (OR)", "Nameplate_Capacity": 190.0, "Net_Generation_MWh": null, "Source_Type": 6 }, "geometry": { "type": "Point", "coordinates": [ -116.835042, 44.971643 ] } },
{ "type": "Feature", "properties": { "OBJECTID": 76, "Latitude": 45.081111, "Longitude": -121.886611, "Power_Source__group_": "Hydro", "Utility_Name__group_": "Consumer Owned Utilities", "Plant_Name": "Stone Creek", "Nameplate_Capacity": 12.0, "Net_Generation_MWh": null, "Source_Type": 6 }, "geometry": { "type": "Point", "coordinates": [ -121.886611, 45.081111 ] } },
{ "type": "Feature", "properties": { "OBJECTID": 77, "Latitude": 44.285977, "Longitude": -122.041352, "Power_Source__group_": "Other Fuels", "Utility_Name__group_": "Consumer Owned Utilities", "Plant_Name": "Carmen Smith", "Nameplate_Capacity": 114.3, "Net_Generation_MWh": null, "Source_Type": 6 }, "geometry": { "type": "Point", "coordinates": [ -122.041352, 44.285977 ] } },
{ "type": "Feature", "properties": { "OBJECTID": 78, "Latitude": 44.1011, "Longitude": -122.6892, "Power_Source__group_": "Other Fuels", "Utility_Name__group_": "Consumer Owned Utilities", "Plant_Name": "Leaburg", "Nameplate_Capacity": 15.9, "Net_Generation_MWh": null, "Source_Type": 6 }, "geometry": { "type": "Point", "coordinates": [ -122.6892, 44.1011 ] } },
{ "type": "Feature", "properties": { "OBJECTID": 79, "Latitude": 44.069636, "Longitude": -122.835046, "Power_Source__group_": "Other Fuels", "Utility_Name__group_": "Consumer Owned Utilities", "Plant_Name": "Walterville", "Nameplate_Capacity": 8.0, "Net_Generation_MWh": null, "Source_Type": 6 }, "geometry": { "type": "Point", "coordinates": [ -122.835046, 44.069636 ] } },
{ "type": "Feature", "properties": { "OBJECTID": 80, "Latitude": 43.96211, "Longitude": -122.997361, "Power_Source__group_": "Other Fuels", "Utility_Name__group_": "Consumer Owned Utilities", "Plant_Name": "Short Mountain", "Nameplate_Capacity": 3.2, "Net_Generation_MWh": null, "Source_Type": 6 }, "geometry": { "type": "Point", "coordinates": [ -122.997361, 43.96211 ] } },
{ "type": "Feature", "properties": { "OBJECTID": 81, "Latitude": 46.158402, "Longitude": -123.40596, "Power_Source__group_": "Other Fuels", "Utility_Name__group_": "Consumer Owned Utilities", "Plant_Name": "Alden Bailey Power Plant", "Nameplate_Capacity": 10.9, "Net_Generation_MWh": null, "Source_Type": 6 }, "geometry": { "type": "Point", "coordinates": [ -123.40596, 46.158402 ] } },
{ "type": "Feature", "properties": { "OBJECTID": 82, "Latitude": 45.69, "Longitude": -119.61, "Power_Source__group_": "Biogas", "Utility_Name__group_": "Independent Power Producers", "Plant_Name": "Finley Buttes Landfill Gas", "Nameplate_Capacity": 4.8, "Net_Generation_MWh": null, "Source_Type": 1 }, "geometry": { "type": "Point", "coordinates": [ -119.61, 45.69 ] } },
{ "type": "Feature", "properties": { "OBJECTID": 83, "Latitude": 45.71, "Longitude": -119.901111, "Power_Source__group_": "Biogas", "Utility_Name__group_": "Independent Power Producers", "Plant_Name": "Threemile Digester", "Nameplate_Capacity": 4.8, "Net_Generation_MWh": null, "Source_Type": 1 }, "geometry": { "type": "Point", "coordinates": [ -119.901111, 45.71 ] } },
{ "type": "Feature", "properties": { "OBJECTID": 84, "Latitude": 45.5739, "Longitude": -120.2969, "Power_Source__group_": "Biogas", "Utility_Name__group_": "Independent Power Producers", "Plant_Name": "Waste Management Columbia Ridge LFGTE", "Nameplate_Capacity": 12.8, "Net_Generation_MWh": 93619.0, "Source_Type": 1 }, "geometry": { "type": "Point", "coordinates": [ -120.2969, 45.5739 ] } },
{ "type": "Feature", "properties": { "OBJECTID": 85, "Latitude": 44.770792, "Longitude": -122.611974, "Power_Source__group_": "Biogas", "Utility_Name__group_": "Independent Power Producers", "Plant_Name": "Evergreen BioPower LLC", "Nameplate_Capacity": 21.0, "Net_Generation_MWh": null, "Source_Type": 1 }, "geometry": { "type": "Point", "coordinates": [ -122.611974, 44.770792 ] } },
{ "type": "Feature", "properties": { "OBJECTID": 86, "Latitude": 45.400524, "Longitude": -122.765822, "Power_Source__group_": "Biogas", "Utility_Name__group_": "Independent Power Producers", "Plant_Name": "Durham AWTF", "Nameplate_Capacity": 1.6, "Net_Generation_MWh": 11246.0, "Source_Type": 1 }, "geometry": { "type": "Point", "coordinates": [ -122.765822, 45.400524 ] } },
{ "type": "Feature", "properties": { "OBJECTID": 87, "Latitude": 42.436111, "Longitude": -122.849958, "Power_Source__group_": "Biogas", "Utility_Name__group_": "Independent Power Producers", "Plant_Name": "Biomass One LP", "Nameplate_Capacity": 40.0, "Net_Generation_MWh": null, "Source_Type": 1 }, "geometry": { "type": "Point", "coordinates": [ -122.849958, 42.436111 ] } },
{ "type": "Feature", "properties": { "OBJECTID": 88, "Latitude": 45.1672, "Longitude": -123.2511, "Power_Source__group_": "Biogas", "Utility_Name__group_": "Independent Power Producers", "Plant_Name": "Riverbend Landfill", "Nameplate_Capacity": 4.8, "Net_Generation_MWh": null, "Source_Type": 1 }, "geometry": { "type": "Point", "coordinates": [ -123.2511, 45.1672 ] } },
{ "type": "Feature", "properties": { "OBJECTID": 89, "Latitude": 45.414444, "Longitude": -123.804167, "Power_Source__group_": "Biogas", "Utility_Name__group_": "Independent Power Producers", "Plant_Name": "POTB Digester", "Nameplate_Capacity": 1.0, "Net_Generation_MWh": null, "Source_Type": 1 }, "geometry": { "type": "Point", "coordinates": [ -123.804167, 45.414444 ] } },
{ "type": "Feature", "properties": { "OBJECTID": 90, "Latitude": 44.023056, "Longitude": -117.46806, "Power_Source__group_": "Geothermal", "Utility_Name__group_": "Independent Power Producers", "Plant_Name": "Neal Hot Springs Geothermal Project", "Nameplate_Capacity": 33.0, "Net_Generation_MWh": null, "Source_Type": 3 }, "geometry": { "type": "Point", "coordinates": [ -117.46806, 44.023056 ] } },
{ "type": "Feature", "properties": { "OBJECTID": 91, "Latitude": 42.695833, "Longitude": -120.557778, "Power_Source__group_": "Geothermal", "Utility_Name__group_": "Consumer Owned Utilities", "Plant_Name": "Paisley Geothermal Generating Plant", "Nameplate_Capacity": 3.7, "Net_Generation_MWh": 0.0, "Source_Type": 3 }, "geometry": { "type": "Point", "coordinates": [ -120.557778, 42.695833 ] } },
{ "type": "Feature", "properties": { "OBJECTID": 92, "Latitude": 45.847998, "Longitude": -119.67392, "Power_Source__group_": "Natural Gas", "Utility_Name__group_": "Portland General Electric", "Plant_Name": "Coyote Springs", "Nameplate_Capacity": 296.0, "Net_Generation_MWh": 1728811.0, "Source_Type": 5 }, "geometry": { "type": "Point", "coordinates": [ -119.67392, 45.847998 ] } },
{ "type": "Feature", "properties": { "OBJECTID": 93, "Latitude": 46.17894, "Longitude": -123.172039, "Power_Source__group_": "Natural Gas", "Utility_Name__group_": "Portland General Electric", "Plant_Name": "Port Westward", "Nameplate_Capacity": 483.0, "Net_Generation_MWh": 2918641.0, "Source_Type": 5 }, "geometry": { "type": "Point", "coordinates": [ -123.172039, 46.17894 ] } },
{ "type": "Feature", "properties": { "OBJECTID": 94, "Latitude": 45.794046, "Longitude": -119.313323, "Power_Source__group_": "Natural Gas", "Utility_Name__group_": "Independent Power Producers", "Plant_Name": "Hermiston Power Partnership", "Nameplate_Capacity": 689.4, "Net_Generation_MWh": 4341072.0, "Source_Type": 5 }, "geometry": { "type": "Point", "coordinates": [ -119.313323, 45.794046 ] } },
{ "type": "Feature", "properties": { "OBJECTID": 95, "Latitude": 45.8042, "Longitude": -119.37, "Power_Source__group_": "Natural Gas", "Utility_Name__group_": "Independent Power Producers", "Plant_Name": "Hermiston Generating Plant", "Nameplate_Capacity": 621.2, "Net_Generation_MWh": 2823007.0, "Source_Type": 5 }, "geometry": { "type": "Point", "coordinates": [ -119.37, 45.8042 ] } },
{ "type": "Feature", "properties": { "OBJECTID": 96, "Latitude": 45.848039, "Longitude": -119.673965, "Power_Source__group_": "Natural Gas", "Utility_Name__group_": "Independent Power Producers", "Plant_Name": "Coyote Springs II", "Nameplate_Capacity": 287.0, "Net_Generation_MWh": 1533635.0, "Source_Type": 5 }, "geometry": { "type": "Point", "coordinates": [ -119.673965, 45.848039 ] } },
{ "type": "Feature", "properties": { "OBJECTID": 97, "Latitude": 42.173889, "Longitude": -121.810556, "Power_Source__group_": "Natural Gas", "Utility_Name__group_": "Independent Power Producers", "Plant_Name": "Klamath Cogeneration Plant", "Nameplate_Capacity": 501.5, "Net_Generation_MWh": 3055409.8, "Source_Type": 5 }, "geometry": { "type": "Point", "coordinates": [ -121.810556, 42.173889 ] } },
{ "type": "Feature", "properties": { "OBJECTID": 99, "Latitude": 44.564333, "Longitude": -123.289089, "Power_Source__group_": "Natural Gas", "Utility_Name__group_": "Independent Power Producers", "Plant_Name": "Oregon State University Energy Center", "Nameplate_Capacity": 6.5, "Net_Generation_MWh": 42995.0, "Source_Type": 5 }, "geometry": { "type": "Point", "coordinates": [ -123.289089, 44.564333 ] } },
{ "type": "Feature", "properties": { "OBJECTID": 101, "Latitude": 42.50136, "Longitude": -120.98944, "Power_Source__group_": "Hydro", "Utility_Name__group_": "Independent Power Producers", "Plant_Name": "Sprague Hydro", "Nameplate_Capacity": 1.2, "Net_Generation_MWh": null, "Source_Type": 4 }, "geometry": { "type": "Point", "coordinates": [ -120.98944, 42.50136 ] } },
{ "type": "Feature", "properties": { "OBJECTID": 102, "Latitude": 44.528056, "Longitude": -121.152778, "Power_Source__group_": "Hydro", "Utility_Name__group_": "Independent Power Producers", "Plant_Name": "45 Mile Hydroelectric Project", "Nameplate_Capacity": 3.0, "Net_Generation_MWh": null, "Source_Type": 4 }, "geometry": { "type": "Point", "coordinates": [ -121.152778, 44.528056 ] } },
{ "type": "Feature", "properties": { "OBJECTID": 103, "Latitude": 44.142698, "Longitude": -121.269747, "Power_Source__group_": "Hydro", "Utility_Name__group_": "Independent Power Producers", "Plant_Name": "Juniper Ridge Hydroelectric Project", "Nameplate_Capacity": 5.0, "Net_Generation_MWh": null, "Source_Type": 4 }, "geometry": { "type": "Point", "coordinates": [ -121.269747, 44.142698 ] } },
{ "type": "Feature", "properties": { "OBJECTID": 104, "Latitude": 44.49004, "Longitude": -121.298812, "Power_Source__group_": "Hydro", "Utility_Name__group_": "Independent Power Producers", "Plant_Name": "Opal Springs Hydro", "Nameplate_Capacity": 4.3, "Net_Generation_MWh": null, "Source_Type": 4 }, "geometry": { "type": "Point", "coordinates": [ -121.298812, 44.49004 ] } },
{ "type": "Feature", "properties": { "OBJECTID": 105, "Latitude": 44.033022, "Longitude": -121.3297, "Power_Source__group_": "Hydro", "Utility_Name__group_": "Independent Power Producers", "Plant_Name": "Siphon Power Project", "Nameplate_Capacity": 5.4, "Net_Generation_MWh": null, "Source_Type": 4 }, "geometry": { "type": "Point", "coordinates": [ -121.3297, 44.033022 ] } },
{ "type": "Feature", "properties": { "OBJECTID": 106, "Latitude": 42.165833, "Longitude": -121.685, "Power_Source__group_": "Hydro", "Utility_Name__group_": "Independent Power Producers", "Plant_Name": "C-Drop Hydro", "Nameplate_Capacity": 1.1, "Net_Generation_MWh": null, "Source_Type": 4 }, "geometry": { "type": "Point", "coordinates": [ -121.685, 42.165833 ] } },
{ "type": "Feature", "properties": { "OBJECTID": 107, "Latitude": 43.786667, "Longitude": -122.958056, "Power_Source__group_": "Hydro", "Utility_Name__group_": "Independent Power Producers", "Plant_Name": "Dorena Hydro-Electric Facility", "Nameplate_Capacity": 7.5, "Net_Generation_MWh": null, "Source_Type": 4 }, "geometry": { "type": "Point", "coordinates": [ -122.958056, 43.786667 ] } },
{ "type": "Feature", "properties": { "OBJECTID": 108, "Latitude": 45.9402, "Longitude": -119.2988, "Power_Source__group_": "Hydro", "Utility_Name__group_": "Federal Agencies", "Plant_Name": "McNary", "Nameplate_Capacity": 990.5, "Net_Generation_MWh": null, "Source_Type": 4 }, "geometry": { "type": "Point", "coordinates": [ -119.2988, 45.9402 ] } },
{ "type": "Feature", "properties": { "OBJECTID": 109, "Latitude": 45.71644, "Longitude": -120.69408, "Power_Source__group_": "Hydro", "Utility_Name__group_": "Federal Agencies", "Plant_Name": "John Day", "Nameplate_Capacity": 2160.0, "Net_Generation_MWh": 7332619.0, "Source_Type": 4 }, "geometry": { "type": "Point", "coordinates": [ -120.69408, 45.71644 ] } },
{ "type": "Feature", "properties": { "OBJECTID": 110, "Latitude": 45.614, "Longitude": -121.1346, "Power_Source__group_": "Hydro", "Utility_Name__group_": "Federal Agencies", "Plant_Name": "The Dalles", "Nameplate_Capacity": 1819.7, "Net_Generation_MWh": 5965530.0, "Source_Type": 4 }, "geometry": { "type": "Point", "coordinates": [ -121.1346, 45.614 ] } },
{ "type": "Feature", "properties": { "OBJECTID": 111, "Latitude": 45.6441, "Longitude": -121.941009, "Power_Source__group_": "Hydro", "Utility_Name__group_": "Federal Agencies", "Plant_Name": "Bonneville", "Nameplate_Capacity": 1162.0, "Net_Generation_MWh": 4010436.0, "Source_Type": 4 }, "geometry": { "type": "Point", "coordinates": [ -121.941009, 45.6441 ] } },
{ "type": "Feature", "properties": { "OBJECTID": 112, "Latitude": 44.1307, "Longitude": -122.2439, "Power_Source__group_": "Hydro", "Utility_Name__group_": "Federal Agencies", "Plant_Name": "Cougar", "Nameplate_Capacity": 26.0, "Net_Generation_MWh": null, "Source_Type": 4 }, "geometry": { "type": "Point", "coordinates": [ -122.2439, 44.1307 ] } },
{ "type": "Feature", "properties": { "OBJECTID": 113, "Latitude": 44.7224, "Longitude": -122.2511, "Power_Source__group_": "Hydro", "Utility_Name__group_": "Federal Agencies", "Plant_Name": "Detroit", "Nameplate_Capacity": 100.0, "Net_Generation_MWh": null, "Source_Type": 4 }, "geometry": { "type": "Point", "coordinates": [ -122.2511, 44.7224 ] } },
{ "type": "Feature", "properties": { "OBJECTID": 114, "Latitude": 44.7514, "Longitude": -122.2832, "Power_Source__group_": "Hydro", "Utility_Name__group_": "Federal Agencies", "Plant_Name": "Big Cliff", "Nameplate_Capacity": 18.0, "Net_Generation_MWh": null, "Source_Type": 4 }, "geometry": { "type": "Point", "coordinates": [ -122.2832, 44.7514 ] } },
{ "type": "Feature", "properties": { "OBJECTID": 115, "Latitude": 43.7107, "Longitude": -122.4238, "Power_Source__group_": "Hydro", "Utility_Name__group_": "Federal Agencies", "Plant_Name": "Hills Creek", "Nameplate_Capacity": 30.0, "Net_Generation_MWh": null, "Source_Type": 4 }, "geometry": { "type": "Point", "coordinates": [ -122.4238, 43.7107 ] } },
{ "type": "Feature", "properties": { "OBJECTID": 116, "Latitude": 42.121168, "Longitude": -122.547896, "Power_Source__group_": "Hydro", "Utility_Name__group_": "Federal Agencies", "Plant_Name": "Green Springs", "Nameplate_Capacity": 17.2, "Net_Generation_MWh": null, "Source_Type": 4 }, "geometry": { "type": "Point", "coordinates": [ -122.547896, 42.121168 ] } },
{ "type": "Feature", "properties": { "OBJECTID": 117, "Latitude": 44.4494, "Longitude": -122.5494, "Power_Source__group_": "Hydro", "Utility_Name__group_": "Federal Agencies", "Plant_Name": "Green Peter", "Nameplate_Capacity": 80.0, "Net_Generation_MWh": null, "Source_Type": 4 }, "geometry": { "type": "Point", "coordinates": [ -122.5494, 44.4494 ] } },
{ "type": "Feature", "properties": { "OBJECTID": 118, "Latitude": 44.4146, "Longitude": -122.6712, "Power_Source__group_": "Hydro", "Utility_Name__group_": "Federal Agencies", "Plant_Name": "Foster", "Nameplate_Capacity": 20.0, "Net_Generation_MWh": null, "Source_Type": 4 }, "geometry": { "type": "Point", "coordinates": [ -122.6712, 44.4146 ] } },
{ "type": "Feature", "properties": { "OBJECTID": 119, "Latitude": 42.6717, "Longitude": -122.6772, "Power_Source__group_": "Hydro", "Utility_Name__group_": "Federal Agencies", "Plant_Name": "Lost Creek", "Nameplate_Capacity": 49.0, "Net_Generation_MWh": null, "Source_Type": 4 }, "geometry": { "type": "Point", "coordinates": [ -122.6772, 42.6717 ] } },
{ "type": "Feature", "properties": { "OBJECTID": 120, "Latitude": 43.9153, "Longitude": -122.7531, "Power_Source__group_": "Hydro", "Utility_Name__group_": "Federal Agencies", "Plant_Name": "Lookout Point", "Nameplate_Capacity": 120.0, "Net_Generation_MWh": null, "Source_Type": 4 }, "geometry": { "type": "Point", "coordinates": [ -122.7531, 43.9153 ] } },
{ "type": "Feature", "properties": { "OBJECTID": 121, "Latitude": 43.9242, "Longitude": -122.8055, "Power_Source__group_": "Hydro", "Utility_Name__group_": "Federal Agencies", "Plant_Name": "Dexter", "Nameplate_Capacity": 15.0, "Net_Generation_MWh": null, "Source_Type": 4 }, "geometry": { "type": "Point", "coordinates": [ -122.8055, 43.9242 ] } },
{ "type": "Feature", "properties": { "OBJECTID": 122, "Latitude": 43.771896, "Longitude": -117.155023, "Power_Source__group_": "Hydro", "Utility_Name__group_": "Consumer Owned Utilities", "Plant_Name": "Michell Butte Power Project", "Nameplate_Capacity": 1.8, "Net_Generation_MWh": null, "Source_Type": 4 }, "geometry": { "type": "Point", "coordinates": [ -117.155023, 43.771896 ] } },
{ "type": "Feature", "properties": { "OBJECTID": 123, "Latitude": 43.642023, "Longitude": -117.232674, "Power_Source__group_": "Hydro", "Utility_Name__group_": "Consumer Owned Utilities", "Plant_Name": "Tunnel 1 Power Project", "Nameplate_Capacity": 7.0, "Net_Generation_MWh": null, "Source_Type": 4 }, "geometry": { "type": "Point", "coordinates": [ -117.232674, 43.642023 ] } },
{ "type": "Feature", "properties": { "OBJECTID": 124, "Latitude": 43.641603, "Longitude": -117.24374, "Power_Source__group_": "Hydro", "Utility_Name__group_": "Consumer Owned Utilities", "Plant_Name": "Owyhee Dam Power Project", "Nameplate_Capacity": 4.3, "Net_Generation_MWh": null, "Source_Type": 4 }, "geometry": { "type": "Point", "coordinates": [ -117.24374, 43.641603 ] } },
{ "type": "Feature", "properties": { "OBJECTID": 125, "Latitude": 45.940034, "Longitude": -119.299078, "Power_Source__group_": "Hydro", "Utility_Name__group_": "Consumer Owned Utilities", "Plant_Name": "McNary Dam Fish Attraction Project", "Nameplate_Capacity": 10.0, "Net_Generation_MWh": null, "Source_Type": 4 }, "geometry": { "type": "Point", "coordinates": [ -119.299078, 45.940034 ] } },
{ "type": "Feature", "properties": { "OBJECTID": 126, "Latitude": 45.614375, "Longitude": -121.136885, "Power_Source__group_": "Hydro", "Utility_Name__group_": "Consumer Owned Utilities", "Plant_Name": "Dalles Dam North Fishway Project", "Nameplate_Capacity": 6.5, "Net_Generation_MWh": null, "Source_Type": 4 }, "geometry": { "type": "Point", "coordinates": [ -121.136885, 45.614375 ] } },
{ "type": "Feature", "properties": { "OBJECTID": 127, "Latitude": 45.66523, "Longitude": -121.523761, "Power_Source__group_": "Hydro", "Utility_Name__group_": "Consumer Owned Utilities", "Plant_Name": "Copper Dam Plant", "Nameplate_Capacity": 2.6, "Net_Generation_MWh": null, "Source_Type": 4 }, "geometry": { "type": "Point", "coordinates": [ -121.523761, 45.66523 ] } },
{ "type": "Feature", "properties": { "OBJECTID": 128, "Latitude": 45.66764, "Longitude": -121.548455, "Power_Source__group_": "Hydro", "Utility_Name__group_": "Consumer Owned Utilities", "Plant_Name": "Peters Drive Plant", "Nameplate_Capacity": 1.8, "Net_Generation_MWh": null, "Source_Type": 4 }, "geometry": { "type": "Point", "coordinates": [ -121.548455, 45.66764 ] } },
{ "type": "Feature", "properties": { "OBJECTID": 129, "Latitude": 45.480701, "Longitude": -121.59984, "Power_Source__group_": "Hydro", "Utility_Name__group_": "Consumer Owned Utilities", "Plant_Name": "Middle Fork Irrigation District", "Nameplate_Capacity": 3.3, "Net_Generation_MWh": null, "Source_Type": 4 }, "geometry": { "type": "Point", "coordinates": [ -121.59984, 45.480701 ] } },
{ "type": "Feature", "properties": { "OBJECTID": 130, "Latitude": 44.597518, "Longitude": -122.685441, "Power_Source__group_": "Hydro", "Utility_Name__group_": "Consumer Owned Utilities", "Plant_Name": "Lacomb Irrigation District", "Nameplate_Capacity": 1.0, "Net_Generation_MWh": null, "Source_Type": 4 }, "geometry": { "type": "Point", "coordinates": [ -122.685441, 44.597518 ] } },
{ "type": "Feature", "properties": { "OBJECTID": 131, "Latitude": 45.269444, "Longitude": -122.771667, "Power_Source__group_": "Solar", "Utility_Name__group_": "Portland General Electric", "Plant_Name": "Baldock Solar Highway", "Nameplate_Capacity": 1.7, "Net_Generation_MWh": null, "Source_Type": 7 }, "geometry": { "type": "Point", "coordinates": [ -122.771667, 45.269444 ] } },
{ "type": "Feature", "properties": { "OBJECTID": 132, "Latitude": 42.17505, "Longitude": -120.362631, "Power_Source__group_": "Solar", "Utility_Name__group_": "PacifiCorp/Pacific Power", "Plant_Name": "Black Cap Solar Plant", "Nameplate_Capacity": 2.0, "Net_Generation_MWh": null, "Source_Type": 7 }, "geometry": { "type": "Point", "coordinates": [ -120.362631, 42.17505 ] } },
{ "type": "Feature", "properties": { "OBJECTID": 133, "Latitude": 43.93097, "Longitude": -116.987626, "Power_Source__group_": "Solar", "Utility_Name__group_": "Independent Power Producers", "Plant_Name": "Thunderegg Solar Center, LLC", "Nameplate_Capacity": 10.0, "Net_Generation_MWh": 22539.0, "Source_Type": 7 }, "geometry": { "type": "Point", "coordinates": [ -116.987626, 43.93097 ] } },
{ "type": "Feature", "properties": { "OBJECTID": 134, "Latitude": 44.151256, "Longitude": -117.000071, "Power_Source__group_": "Solar", "Utility_Name__group_": "Independent Power Producers", "Plant_Name": "Hyline Solar Center, LLC", "Nameplate_Capacity": 9.0, "Net_Generation_MWh": 14780.0, "Source_Type": 7 }, "geometry": { "type": "Point", "coordinates": [ -117.000071, 44.151256 ] } },
{ "type": "Feature", "properties": { "OBJECTID": 135, "Latitude": 44.112841, "Longitude": -117.028093, "Power_Source__group_": "Solar", "Utility_Name__group_": "Independent Power Producers", "Plant_Name": "Ontario Solar Center", "Nameplate_Capacity": 3.0, "Net_Generation_MWh": null, "Source_Type": 7 }, "geometry": { "type": "Point", "coordinates": [ -117.028093, 44.112841 ] } },
{ "type": "Feature", "properties": { "OBJECTID": 136, "Latitude": 43.796766, "Longitude": -117.065311, "Power_Source__group_": "Solar", "Utility_Name__group_": "Independent Power Producers", "Plant_Name": "Open Range Solar Center, LLC", "Nameplate_Capacity": 10.0, "Net_Generation_MWh": 22861.0, "Source_Type": 7 }, "geometry": { "type": "Point", "coordinates": [ -117.065311, 43.796766 ] } },
{ "type": "Feature", "properties": { "OBJECTID": 137, "Latitude": 43.951376, "Longitude": -117.07478, "Power_Source__group_": "Solar", "Utility_Name__group_": "Independent Power Producers", "Plant_Name": "Morgan Solar Center", "Nameplate_Capacity": 3.0, "Net_Generation_MWh": null, "Source_Type": 7 }, "geometry": { "type": "Point", "coordinates": [ -117.07478, 43.951376 ] } },
{ "type": "Feature", "properties": { "OBJECTID": 138, "Latitude": 43.998019, "Longitude": -117.10118, "Power_Source__group_": "Solar", "Utility_Name__group_": "Independent Power Producers", "Plant_Name": "Railroad Solar Center, LLC", "Nameplate_Capacity": 4.5, "Net_Generation_MWh": 10388.0, "Source_Type": 7 }, "geometry": { "type": "Point", "coordinates": [ -117.10118, 43.998019 ] } },
{ "type": "Feature", "properties": { "OBJECTID": 139, "Latitude": 43.965031, "Longitude": -117.25806, "Power_Source__group_": "Solar", "Utility_Name__group_": "Independent Power Producers", "Plant_Name": "Vale Air Solar Center, LLC", "Nameplate_Capacity": 10.0, "Net_Generation_MWh": 22641.0, "Source_Type": 7 }, "geometry": { "type": "Point", "coordinates": [ -117.25806, 43.965031 ] } },
{ "type": "Feature", "properties": { "OBJECTID": 140, "Latitude": 43.936687, "Longitude": -117.381214, "Power_Source__group_": "Solar", "Utility_Name__group_": "Independent Power Producers", "Plant_Name": "Grove Solar Center, LLC", "Nameplate_Capacity": 6.0, "Net_Generation_MWh": 13235.0, "Source_Type": 7 }, "geometry": { "type": "Point", "coordinates": [ -117.381214, 43.936687 ] } },
{ "type": "Feature", "properties": { "OBJECTID": 141, "Latitude": 44.157874, "Longitude": -117.44434, "Power_Source__group_": "Solar", "Utility_Name__group_": "Independent Power Producers", "Plant_Name": "Vale Solar Center", "Nameplate_Capacity": 3.0, "Net_Generation_MWh": null, "Source_Type": 7 }, "geometry": { "type": "Point", "coordinates": [ -117.44434, 44.157874 ] } },
{ "type": "Feature", "properties": { "OBJECTID": 142, "Latitude": 44.702418, "Longitude": -117.763482, "Power_Source__group_": "Solar", "Utility_Name__group_": "Independent Power Producers", "Plant_Name": "Baker City Solar", "Nameplate_Capacity": 15.0, "Net_Generation_MWh": null, "Source_Type": 7 }, "geometry": { "type": "Point", "coordinates": [ -117.763482, 44.702418 ] } },
{ "type": "Feature", "properties": { "OBJECTID": 143, "Latitude": 44.465334, "Longitude": -118.204075, "Power_Source__group_": "Solar", "Utility_Name__group_": "Independent Power Producers", "Plant_Name": "Brush Solar Center", "Nameplate_Capacity": 2.8, "Net_Generation_MWh": null, "Source_Type": 7 }, "geometry": { "type": "Point", "coordinates": [ -118.204075, 44.465334 ] } },
{ "type": "Feature", "properties": { "OBJECTID": 144, "Latitude": 43.50259, "Longitude": -119.14713, "Power_Source__group_": "Solar", "Utility_Name__group_": "Independent Power Producers", "Plant_Name": "West Hines Solar I, LLC", "Nameplate_Capacity": 10.0, "Net_Generation_MWh": null, "Source_Type": 7 }, "geometry": { "type": "Point", "coordinates": [ -119.14713, 43.50259 ] } },
{ "type": "Feature", "properties": { "OBJECTID": 145, "Latitude": 43.50222, "Longitude": -119.14852, "Power_Source__group_": "Solar", "Utility_Name__group_": "Independent Power Producers", "Plant_Name": "Starvation", "Nameplate_Capacity": 9.9, "Net_Generation_MWh": null, "Source_Type": 7 }, "geometry": { "type": "Point", "coordinates": [ -119.14852, 43.50222 ] } },
{ "type": "Feature", "properties": { "OBJECTID": 146, "Latitude": 43.5559, "Longitude": -119.6852, "Power_Source__group_": "Solar", "Utility_Name__group_": "Independent Power Producers", "Plant_Name": "Riley", "Nameplate_Capacity": 10.0, "Net_Generation_MWh": null, "Source_Type": 7 }, "geometry": { "type": "Point", "coordinates": [ -119.6852, 43.5559 ] } },
{ "type": "Feature", "properties": { "OBJECTID": 147, "Latitude": 43.56149, "Longitude": -119.68621, "Power_Source__group_": "Solar", "Utility_Name__group_": "Independent Power Producers", "Plant_Name": "Suntex Solar, LLC", "Nameplate_Capacity": 10.0, "Net_Generation_MWh": null, "Source_Type": 7 }, "geometry": { "type": "Point", "coordinates": [ -119.68621, 43.56149 ] } },
{ "type": "Feature", "properties": { "OBJECTID": 148, "Latitude": 45.54, "Longitude": -120.18, "Power_Source__group_": "Solar", "Utility_Name__group_": "Independent Power Producers", "Plant_Name": "Montague Solar", "Nameplate_Capacity": null, "Net_Generation_MWh": null, "Source_Type": 7 }, "geometry": { "type": "Point", "coordinates": [ -120.18, 45.54 ] } },
{ "type": "Feature", "properties": { "OBJECTID": 149, "Latitude": 42.117, "Longitude": -120.333, "Power_Source__group_": "Solar", "Utility_Name__group_": "Independent Power Producers", "Plant_Name": "Blue Marmot VII", "Nameplate_Capacity": null, "Net_Generation_MWh": null, "Source_Type": 7 }, "geometry": { "type": "Point", "coordinates": [ -120.333, 42.117 ] } },
{ "type": "Feature", "properties": { "OBJECTID": 151, "Latitude": 42.175, "Longitude": -120.3598, "Power_Source__group_": "Solar", "Utility_Name__group_": "Independent Power Producers", "Plant_Name": "BC Solar", "Nameplate_Capacity": 8.0, "Net_Generation_MWh": null, "Source_Type": 7 }, "geometry": { "type": "Point", "coordinates": [ -120.3598, 42.175 ] } },
{ "type": "Feature", "properties": { "OBJECTID": 152, "Latitude": 42.208988, "Longitude": -120.367807, "Power_Source__group_": "Solar", "Utility_Name__group_": "Independent Power Producers", "Plant_Name": "OR Solar 6, LLC", "Nameplate_Capacity": 10.0, "Net_Generation_MWh": null, "Source_Type": 7 }, "geometry": { "type": "Point", "coordinates": [ -120.367807, 42.208988 ] } },
{ "type": "Feature", "properties": { "OBJECTID": 153, "Latitude": 42.16, "Longitude": -120.4, "Power_Source__group_": "Solar", "Utility_Name__group_": "Independent Power Producers", "Plant_Name": "Garrett Solar", "Nameplate_Capacity": 10.0, "Net_Generation_MWh": null, "Source_Type": 7 }, "geometry": { "type": "Point", "coordinates": [ -120.4, 42.16 ] } },
{ "type": "Feature", "properties": { "OBJECTID": 154, "Latitude": 42.170176, "Longitude": -120.402317, "Power_Source__group_": "Solar", "Utility_Name__group_": "Independent Power Producers", "Plant_Name": "Airport Solar", "Nameplate_Capacity": 47.3, "Net_Generation_MWh": 102254.0, "Source_Type": 7 }, "geometry": { "type": "Point", "coordinates": [ -120.402317, 42.170176 ] } },
{ "type": "Feature", "properties": { "OBJECTID": 155, "Latitude": 42.175, "Longitude": -120.412, "Power_Source__group_": "Solar", "Utility_Name__group_": "Independent Power Producers", "Plant_Name": "Blue Marmot V", "Nameplate_Capacity": null, "Net_Generation_MWh": null, "Source_Type": 7 }, "geometry": { "type": "Point", "coordinates": [ -120.412, 42.175 ] } },
{ "type": "Feature", "properties": { "OBJECTID": 156, "Latitude": 43.236944, "Longitude": -120.49, "Power_Source__group_": "Solar", "Utility_Name__group_": "Independent Power Producers", "Plant_Name": "Outback Solar At Christmas Valley", "Nameplate_Capacity": 4.4, "Net_Generation_MWh": null, "Source_Type": 7 }, "geometry": { "type": "Point", "coordinates": [ -120.49, 43.236944 ] } },
{ "type": "Feature", "properties": { "OBJECTID": 157, "Latitude": 42.122, "Longitude": -120.498, "Power_Source__group_": "Solar", "Utility_Name__group_": "Independent Power Producers", "Plant_Name": "Blue Marmot VI", "Nameplate_Capacity": null, "Net_Generation_MWh": null, "Source_Type": 7 }, "geometry": { "type": "Point", "coordinates": [ -120.498, 42.122 ] } },
{ "type": "Feature", "properties": { "OBJECTID": 159, "Latitude": 44.154107, "Longitude": -120.53409, "Power_Source__group_": "Solar", "Utility_Name__group_": "Independent Power Producers", "Plant_Name": "Millican Solar Energy LLC", "Nameplate_Capacity": null, "Net_Generation_MWh": 113989.0, "Source_Type": 7 }, "geometry": { "type": "Point", "coordinates": [ -120.53409, 44.154107 ] } },
{ "type": "Feature", "properties": { "OBJECTID": 161, "Latitude": 45.5846, "Longitude": -120.59994, "Power_Source__group_": "Solar", "Utility_Name__group_": "Independent Power Producers", "Plant_Name": "WyEast Solar", "Nameplate_Capacity": 10.0, "Net_Generation_MWh": null, "Source_Type": 7 }, "geometry": { "type": "Point", "coordinates": [ -120.59994, 45.5846 ] } },
{ "type": "Feature", "properties": { "OBJECTID": 163, "Latitude": 45.131793, "Longitude": -120.880655, "Power_Source__group_": "Solar", "Utility_Name__group_": "Independent Power Producers", "Plant_Name": "Bakeoven Solar", "Nameplate_Capacity": null, "Net_Generation_MWh": null, "Source_Type": 7 }, "geometry": { "type": "Point", "coordinates": [ -120.880655, 45.131793 ] } },
{ "type": "Feature", "properties": { "OBJECTID": 164, "Latitude": 43.268206, "Longitude": -120.913617, "Power_Source__group_": "Solar", "Utility_Name__group_": "Independent Power Producers", "Plant_Name": "Poplars Ranch Solar LLC", "Nameplate_Capacity": null, "Net_Generation_MWh": null, "Source_Type": 7 }, "geometry": { "type": "Point", "coordinates": [ -120.913617, 43.268206 ] } },
{ "type": "Feature", "properties": { "OBJECTID": 165, "Latitude": 44.1843, "Longitude": -120.918, "Power_Source__group_": "Solar", "Utility_Name__group_": "Independent Power Producers", "Plant_Name": "Solar Star Oregon II", "Nameplate_Capacity": 56.3, "Net_Generation_MWh": 126033.0, "Source_Type": 7 }, "geometry": { "type": "Point", "coordinates": [ -120.918, 44.1843 ] } },
{ "type": "Feature", "properties": { "OBJECTID": 166, "Latitude": 43.39691, "Longitude": -120.93038, "Power_Source__group_": "Solar", "Utility_Name__group_": "Independent Power Producers", "Plant_Name": "Rock Garden Solar, LLC", "Nameplate_Capacity": 10.0, "Net_Generation_MWh": null, "Source_Type": 7 }, "geometry": { "type": "Point", "coordinates": [ -120.93038, 43.39691 ] } },
{ "type": "Feature", "properties": { "OBJECTID": 167, "Latitude": 43.38988, "Longitude": -120.956087, "Power_Source__group_": "Solar", "Utility_Name__group_": "Independent Power Producers", "Plant_Name": "Fort Rock IV", "Nameplate_Capacity": 10.0, "Net_Generation_MWh": null, "Source_Type": 7 }, "geometry": { "type": "Point", "coordinates": [ -120.956087, 43.38988 ] } },
{ "type": "Feature", "properties": { "OBJECTID": 168, "Latitude": 43.320081, "Longitude": -121.003496, "Power_Source__group_": "Solar", "Utility_Name__group_": "Independent Power Producers", "Plant_Name": "Fort Rock I", "Nameplate_Capacity": 9.9, "Net_Generation_MWh": null, "Source_Type": 7 }, "geometry": { "type": "Point", "coordinates": [ -121.003496, 43.320081 ] } },
{ "type": "Feature", "properties": { "OBJECTID": 169, "Latitude": 43.31942, "Longitude": -121.0035, "Power_Source__group_": "Solar", "Utility_Name__group_": "Independent Power Producers", "Plant_Name": "Alkali Solar, LLC", "Nameplate_Capacity": 10.0, "Net_Generation_MWh": null, "Source_Type": 7 }, "geometry": { "type": "Point", "coordinates": [ -121.0035, 43.31942 ] } },
{ "type": "Feature", "properties": { "OBJECTID": 170, "Latitude": 42.392193, "Longitude": -121.024494, "Power_Source__group_": "Solar", "Utility_Name__group_": "Independent Power Producers", "Plant_Name": "Bly Solar Center", "Nameplate_Capacity": 8.0, "Net_Generation_MWh": null, "Source_Type": 7 }, "geometry": { "type": "Point", "coordinates": [ -121.024494, 42.392193 ] } },
{ "type": "Feature", "properties": { "OBJECTID": 171, "Latitude": 42.203333, "Longitude": -121.046389, "Power_Source__group_": "Solar", "Utility_Name__group_": "Independent Power Producers", "Plant_Name": "Old Mill Solar", "Nameplate_Capacity": 5.0, "Net_Generation_MWh": null, "Source_Type": 7 }, "geometry": { "type": "Point", "coordinates": [ -121.046389, 42.203333 ] } },
{ "type": "Feature", "properties": { "OBJECTID": 172, "Latitude": 44.675, "Longitude": -121.122, "Power_Source__group_": "Solar", "Utility_Name__group_": "Independent Power Producers", "Plant_Name": "Adams Solar Center", "Nameplate_Capacity": 10.0, "Net_Generation_MWh": null, "Source_Type": 7 }, "geometry": { "type": "Point", "coordinates": [ -121.122, 44.675 ] } },
{ "type": "Feature", "properties": { "OBJECTID": 173, "Latitude": 44.618, "Longitude": -121.205, "Power_Source__group_": "Solar", "Utility_Name__group_": "Independent Power Producers", "Plant_Name": "Elbe Solar Center", "Nameplate_Capacity": 10.0, "Net_Generation_MWh": null, "Source_Type": 7 }, "geometry": { "type": "Point", "coordinates": [ -121.205, 44.618 ] } },
{ "type": "Feature", "properties": { "OBJECTID": 174, "Latitude": 44.06803, "Longitude": -121.22838, "Power_Source__group_": "Solar", "Utility_Name__group_": "Independent Power Producers", "Plant_Name": "NorWest Energy 2, LLC", "Nameplate_Capacity": 9.9, "Net_Generation_MWh": 22252.0, "Source_Type": 7 }, "geometry": { "type": "Point", "coordinates": [ -121.22838, 44.06803 ] } },
{ "type": "Feature", "properties": { "OBJECTID": 175, "Latitude": 44.192575, "Longitude": -121.233106, "Power_Source__group_": "Solar", "Utility_Name__group_": "Independent Power Producers", "Plant_Name": "Tumbleweed Solar, LLC", "Nameplate_Capacity": 9.9, "Net_Generation_MWh": null, "Source_Type": 7 }, "geometry": { "type": "Point", "coordinates": [ -121.233106, 44.192575 ] } },
{ "type": "Feature", "properties": { "OBJECTID": 176, "Latitude": 44.060814, "Longitude": -121.237203, "Power_Source__group_": "Solar", "Utility_Name__group_": "Independent Power Producers", "Plant_Name": "Bear Creek Solar Center", "Nameplate_Capacity": 10.0, "Net_Generation_MWh": null, "Source_Type": 7 }, "geometry": { "type": "Point", "coordinates": [ -121.237203, 44.060814 ] } },
{ "type": "Feature", "properties": { "OBJECTID": 177, "Latitude": 42.022336, "Longitude": -121.418873, "Power_Source__group_": "Solar", "Utility_Name__group_": "Independent Power Producers", "Plant_Name": "OR Solar 3, LLC", "Nameplate_Capacity": 10.0, "Net_Generation_MWh": null, "Source_Type": 7 }, "geometry": { "type": "Point", "coordinates": [ -121.418873, 42.022336 ] } },
{ "type": "Feature", "properties": { "OBJECTID": 178, "Latitude": 42.236443, "Longitude": -121.57766, "Power_Source__group_": "Solar", "Utility_Name__group_": "Independent Power Producers", "Plant_Name": "Woodline Solar", "Nameplate_Capacity": 8.0, "Net_Generation_MWh": null, "Source_Type": 7 }, "geometry": { "type": "Point", "coordinates": [ -121.57766, 42.236443 ] } },
{ "type": "Feature", "properties": { "OBJECTID": 179, "Latitude": 42.238888, "Longitude": -121.585833, "Power_Source__group_": "Solar", "Utility_Name__group_": "Independent Power Producers", "Plant_Name": "OR Solar 8, LLC", "Nameplate_Capacity": 10.0, "Net_Generation_MWh": null, "Source_Type": 7 }, "geometry": { "type": "Point", "coordinates": [ -121.585833, 42.238888 ] } },
{ "type": "Feature", "properties": { "OBJECTID": 180, "Latitude": 42.030332, "Longitude": -121.611565, "Power_Source__group_": "Solar", "Utility_Name__group_": "Independent Power Producers", "Plant_Name": "OR Solar 5, LLC", "Nameplate_Capacity": 8.0, "Net_Generation_MWh": null, "Source_Type": 7 }, "geometry": { "type": "Point", "coordinates": [ -121.611565, 42.030332 ] } },
{ "type": "Feature", "properties": { "OBJECTID": 181, "Latitude": 42.183, "Longitude": -121.764, "Power_Source__group_": "Solar", "Utility_Name__group_": "Independent Power Producers", "Plant_Name": "Klamath Falls Solar 2 CSG", "Nameplate_Capacity": 2.9, "Net_Generation_MWh": null, "Source_Type": 7 }, "geometry": { "type": "Point", "coordinates": [ -121.764, 42.183 ] } },
{ "type": "Feature", "properties": { "OBJECTID": 182, "Latitude": 42.225, "Longitude": -121.781667, "Power_Source__group_": "Solar", "Utility_Name__group_": "Independent Power Producers", "Plant_Name": "Klamath Solar", "Nameplate_Capacity": null, "Net_Generation_MWh": null, "Source_Type": 7 }, "geometry": { "type": "Point", "coordinates": [ -121.781667, 42.225 ] } },
{ "type": "Feature", "properties": { "OBJECTID": 183, "Latitude": 42.610732, "Longitude": -121.861248, "Power_Source__group_": "Solar", "Utility_Name__group_": "Independent Power Producers", "Plant_Name": "Chiloquin Solar, LLC", "Nameplate_Capacity": 9.9, "Net_Generation_MWh": null, "Source_Type": 7 }, "geometry": { "type": "Point", "coordinates": [ -121.861248, 42.610732 ] } },
{ "type": "Feature", "properties": { "OBJECTID": 184, "Latitude": 45.384949, "Longitude": -122.084421, "Power_Source__group_": "Solar", "Utility_Name__group_": "Independent Power Producers", "Plant_Name": "Brightwood Solar, LLC", "Nameplate_Capacity": null, "Net_Generation_MWh": null, "Source_Type": 7 }, "geometry": { "type": "Point", "coordinates": [ -122.084421, 45.384949 ] } },
{ "type": "Feature", "properties": { "OBJECTID": 185, "Latitude": 45.35, "Longitude": -122.25, "Power_Source__group_": "Solar", "Utility_Name__group_": "Independent Power Producers", "Plant_Name": "Firwood Solar, LLC", "Nameplate_Capacity": 10.0, "Net_Generation_MWh": null, "Source_Type": 7 }, "geometry": { "type": "Point", "coordinates": [ -122.25, 45.35 ] } },
{ "type": "Feature", "properties": { "OBJECTID": 186, "Latitude": 45.375, "Longitude": -122.265, "Power_Source__group_": "Solar", "Utility_Name__group_": "Independent Power Producers", "Plant_Name": "Tickle Creek Solar", "Nameplate_Capacity": 1.9, "Net_Generation_MWh": null, "Source_Type": 7 }, "geometry": { "type": "Point", "coordinates": [ -122.265, 45.375 ] } },
{ "type": "Feature", "properties": { "OBJECTID": 187, "Latitude": 45.431, "Longitude": -122.285, "Power_Source__group_": "Solar", "Utility_Name__group_": "Independent Power Producers", "Plant_Name": "Boring Solar LLC", "Nameplate_Capacity": 2.2, "Net_Generation_MWh": null, "Source_Type": 7 }, "geometry": { "type": "Point", "coordinates": [ -122.285, 45.431 ] } },
{ "type": "Feature", "properties": { "OBJECTID": 188, "Latitude": 45.431, "Longitude": -122.286, "Power_Source__group_": "Solar", "Utility_Name__group_": "Independent Power Producers", "Plant_Name": "Dunn Road Solar", "Nameplate_Capacity": null, "Net_Generation_MWh": null, "Source_Type": 7 }, "geometry": { "type": "Point", "coordinates": [ -122.286, 45.431 ] } },
{ "type": "Feature", "properties": { "OBJECTID": 189, "Latitude": 45.46, "Longitude": -122.29, "Power_Source__group_": "Solar", "Utility_Name__group_": "Independent Power Producers", "Plant_Name": "SulusSolar29", "Nameplate_Capacity": 2.6, "Net_Generation_MWh": null, "Source_Type": 7 }, "geometry": { "type": "Point", "coordinates": [ -122.29, 45.46 ] } },
{ "type": "Feature", "properties": { "OBJECTID": 190, "Latitude": 45.26866, "Longitude": -122.32942, "Power_Source__group_": "Solar", "Utility_Name__group_": "Independent Power Producers", "Plant_Name": "Day Hill Solar, LLC", "Nameplate_Capacity": 2.3, "Net_Generation_MWh": null, "Source_Type": 7 }, "geometry": { "type": "Point", "coordinates": [ -122.32942, 45.26866 ] } },
{ "type": "Feature", "properties": { "OBJECTID": 191, "Latitude": 45.42, "Longitude": -122.333, "Power_Source__group_": "Solar", "Utility_Name__group_": "Independent Power Producers", "Plant_Name": "SSD Clackamas 1, LLC", "Nameplate_Capacity": 4.0, "Net_Generation_MWh": null, "Source_Type": 7 }, "geometry": { "type": "Point", "coordinates": [ -122.333, 45.42 ] } },
{ "type": "Feature", "properties": { "OBJECTID": 192, "Latitude": 45.35, "Longitude": -122.35, "Power_Source__group_": "Solar", "Utility_Name__group_": "Independent Power Producers", "Plant_Name": "Duus Solar, LLC", "Nameplate_Capacity": 10.0, "Net_Generation_MWh": null, "Source_Type": 7 }, "geometry": { "type": "Point", "coordinates": [ -122.35, 45.35 ] } },
{ "type": "Feature", "properties": { "OBJECTID": 193, "Latitude": 45.34891, "Longitude": -122.433515, "Power_Source__group_": "Solar", "Utility_Name__group_": "Independent Power Producers", "Plant_Name": "SulusSolar17", "Nameplate_Capacity": 3.1, "Net_Generation_MWh": null, "Source_Type": 7 }, "geometry": { "type": "Point", "coordinates": [ -122.433515, 45.34891 ] } },
{ "type": "Feature", "properties": { "OBJECTID": 194, "Latitude": 45.17, "Longitude": -122.473, "Power_Source__group_": "Solar", "Utility_Name__group_": "Independent Power Producers", "Plant_Name": "Colton Solar", "Nameplate_Capacity": 2.2, "Net_Generation_MWh": null, "Source_Type": 7 }, "geometry": { "type": "Point", "coordinates": [ -122.473, 45.17 ] } },
{ "type": "Feature", "properties": { "OBJECTID": 195, "Latitude": 45.182, "Longitude": -122.591, "Power_Source__group_": "Solar", "Utility_Name__group_": "Independent Power Producers", "Plant_Name": "SSD Clackamas 7, LLC", "Nameplate_Capacity": 2.0, "Net_Generation_MWh": null, "Source_Type": 7 }, "geometry": { "type": "Point", "coordinates": [ -122.591, 45.182 ] } },
{ "type": "Feature", "properties": { "OBJECTID": 196, "Latitude": 45.12795, "Longitude": -122.61382, "Power_Source__group_": "Solar", "Utility_Name__group_": "Independent Power Producers", "Plant_Name": "Mt Hope Solar", "Nameplate_Capacity": null, "Net_Generation_MWh": null, "Source_Type": 7 }, "geometry": { "type": "Point", "coordinates": [ -122.61382, 45.12795 ] } },
{ "type": "Feature", "properties": { "OBJECTID": 197, "Latitude": 45.131407, "Longitude": -122.619475, "Power_Source__group_": "Solar", "Utility_Name__group_": "Independent Power Producers", "Plant_Name": "Thomas Creek Solar", "Nameplate_Capacity": 2.2, "Net_Generation_MWh": null, "Source_Type": 7 }, "geometry": { "type": "Point", "coordinates": [ -122.619475, 45.131407 ] } },
{ "type": "Feature", "properties": { "OBJECTID": 198, "Latitude": 45.172332, "Longitude": -122.622665, "Power_Source__group_": "Solar", "Utility_Name__group_": "Independent Power Producers", "Plant_Name": "Minke Solar", "Nameplate_Capacity": 2.2, "Net_Generation_MWh": null, "Source_Type": 7 }, "geometry": { "type": "Point", "coordinates": [ -122.622665, 45.172332 ] } },
{ "type": "Feature", "properties": { "OBJECTID": 199, "Latitude": 45.140551, "Longitude": -122.649655, "Power_Source__group_": "Solar", "Utility_Name__group_": "Independent Power Producers", "Plant_Name": "SulusSolar35", "Nameplate_Capacity": 3.0, "Net_Generation_MWh": null, "Source_Type": 7 }, "geometry": { "type": "Point", "coordinates": [ -122.649655, 45.140551 ] } },
{ "type": "Feature", "properties": { "OBJECTID": 200, "Latitude": 45.102, "Longitude": -122.662, "Power_Source__group_": "Solar", "Utility_Name__group_": "Independent Power Producers", "Plant_Name": "SSD Clackamas 4, LLC", "Nameplate_Capacity": 2.0, "Net_Generation_MWh": null, "Source_Type": 7 }, "geometry": { "type": "Point", "coordinates": [ -122.662, 45.102 ] } },
{ "type": "Feature", "properties": { "OBJECTID": 201, "Latitude": 45.089244, "Longitude": -122.7705, "Power_Source__group_": "Solar", "Utility_Name__group_": "Independent Power Producers", "Plant_Name": "Pika Solar", "Nameplate_Capacity": 2.2, "Net_Generation_MWh": null, "Source_Type": 7 }, "geometry": { "type": "Point", "coordinates": [ -122.7705, 45.089244 ] } },
{ "type": "Feature", "properties": { "OBJECTID": 202, "Latitude": 44.97, "Longitude": -122.78, "Power_Source__group_": "Solar", "Utility_Name__group_": "Independent Power Producers", "Plant_Name": "SulusSolar22", "Nameplate_Capacity": null, "Net_Generation_MWh": null, "Source_Type": 7 }, "geometry": { "type": "Point", "coordinates": [ -122.78, 44.97 ] } },
{ "type": "Feature", "properties": { "OBJECTID": 203, "Latitude": 42.542084, "Longitude": -122.781338, "Power_Source__group_": "Solar", "Utility_Name__group_": "Independent Power Producers", "Plant_Name": "OR Solar 2, LLC", "Nameplate_Capacity": 10.0, "Net_Generation_MWh": null, "Source_Type": 7 }, "geometry": { "type": "Point", "coordinates": [ -122.781338, 42.542084 ] } },
{ "type": "Feature", "properties": { "OBJECTID": 204, "Latitude": 45.15, "Longitude": -122.79, "Power_Source__group_": "Solar", "Utility_Name__group_": "Independent Power Producers", "Plant_Name": "BristolSolar", "Nameplate_Capacity": null, "Net_Generation_MWh": null, "Source_Type": 7 }, "geometry": { "type": "Point", "coordinates": [ -122.79, 45.15 ] } },
{ "type": "Feature", "properties": { "OBJECTID": 205, "Latitude": 45.11601, "Longitude": -122.793791, "Power_Source__group_": "Solar", "Utility_Name__group_": "Independent Power Producers", "Plant_Name": "SSD Marion 5, LLC", "Nameplate_Capacity": 2.0, "Net_Generation_MWh": null, "Source_Type": 7 }, "geometry": { "type": "Point", "coordinates": [ -122.793791, 45.11601 ] } },
{ "type": "Feature", "properties": { "OBJECTID": 206, "Latitude": 45.137, "Longitude": -122.799, "Power_Source__group_": "Solar", "Utility_Name__group_": "Independent Power Producers", "Plant_Name": "Williams Acres Solar", "Nameplate_Capacity": null, "Net_Generation_MWh": null, "Source_Type": 7 }, "geometry": { "type": "Point", "coordinates": [ -122.799, 45.137 ] } },
{ "type": "Feature", "properties": { "OBJECTID": 207, "Latitude": 44.970572, "Longitude": -122.803509, "Power_Source__group_": "Solar", "Utility_Name__group_": "Independent Power Producers", "Plant_Name": "Drift Creek Solar", "Nameplate_Capacity": 2.2, "Net_Generation_MWh": null, "Source_Type": 7 }, "geometry": { "type": "Point", "coordinates": [ -122.803509, 44.970572 ] } },
{ "type": "Feature", "properties": { "OBJECTID": 208, "Latitude": 45.254, "Longitude": -122.806, "Power_Source__group_": "Solar", "Utility_Name__group_": "Independent Power Producers", "Plant_Name": "SSD Marion 6, LLC", "Nameplate_Capacity": 2.0, "Net_Generation_MWh": null, "Source_Type": 7 }, "geometry": { "type": "Point", "coordinates": [ -122.806, 45.254 ] } },
{ "type": "Feature", "properties": { "OBJECTID": 209, "Latitude": 45.014, "Longitude": -122.807, "Power_Source__group_": "Solar", "Utility_Name__group_": "Independent Power Producers", "Plant_Name": "Silverton Solar", "Nameplate_Capacity": 2.2, "Net_Generation_MWh": null, "Source_Type": 7 }, "geometry": { "type": "Point", "coordinates": [ -122.807, 45.014 ] } },
{ "type": "Feature", "properties": { "OBJECTID": 210, "Latitude": 44.984217, "Longitude": -122.813127, "Power_Source__group_": "Solar", "Utility_Name__group_": "Independent Power Producers", "Plant_Name": "Brush Creek Solar", "Nameplate_Capacity": 2.2, "Net_Generation_MWh": null, "Source_Type": 7 }, "geometry": { "type": "Point", "coordinates": [ -122.813127, 44.984217 ] } },
{ "type": "Feature", "properties": { "OBJECTID": 211, "Latitude": 45.27, "Longitude": -122.82, "Power_Source__group_": "Solar", "Utility_Name__group_": "Independent Power Producers", "Plant_Name": "SulusSolar25", "Nameplate_Capacity": 2.2, "Net_Generation_MWh": null, "Source_Type": 7 }, "geometry": { "type": "Point", "coordinates": [ -122.82, 45.27 ] } },
{ "type": "Feature", "properties": { "OBJECTID": 212, "Latitude": 45.128, "Longitude": -122.828, "Power_Source__group_": "Solar", "Utility_Name__group_": "Independent Power Producers", "Plant_Name": "River Valley Solar", "Nameplate_Capacity": null, "Net_Generation_MWh": null, "Source_Type": 7 }, "geometry": { "type": "Point", "coordinates": [ -122.828, 45.128 ] } },
{ "type": "Feature", "properties": { "OBJECTID": 213, "Latitude": 42.400814, "Longitude": -122.82917, "Power_Source__group_": "Solar", "Utility_Name__group_": "Independent Power Producers", "Plant_Name": "Eagle Point Solar", "Nameplate_Capacity": 9.9, "Net_Generation_MWh": null, "Source_Type": 7 }, "geometry": { "type": "Point", "coordinates": [ -122.82917, 42.400814 ] } },
{ "type": "Feature", "properties": { "OBJECTID": 214, "Latitude": 45.129, "Longitude": -122.899, "Power_Source__group_": "Solar", "Utility_Name__group_": "Independent Power Producers", "Plant_Name": "Interstate Solar", "Nameplate_Capacity": 2.2, "Net_Generation_MWh": null, "Source_Type": 7 }, "geometry": { "type": "Point", "coordinates": [ -122.899, 45.129 ] } },
{ "type": "Feature", "properties": { "OBJECTID": 215, "Latitude": 45.083, "Longitude": -122.904, "Power_Source__group_": "Solar", "Utility_Name__group_": "Independent Power Producers", "Plant_Name": "Kale Patch Solar", "Nameplate_Capacity": 2.2, "Net_Generation_MWh": null, "Source_Type": 7 }, "geometry": { "type": "Point", "coordinates": [ -122.904, 45.083 ] } },
{ "type": "Feature", "properties": { "OBJECTID": 216, "Latitude": 45.139507, "Longitude": -122.904499, "Power_Source__group_": "Solar", "Utility_Name__group_": "Independent Power Producers", "Plant_Name": "SSD Marion 1, LLC", "Nameplate_Capacity": 2.0, "Net_Generation_MWh": null, "Source_Type": 7 }, "geometry": { "type": "Point", "coordinates": [ -122.904499, 45.139507 ] } },
{ "type": "Feature", "properties": { "OBJECTID": 217, "Latitude": 45.172, "Longitude": -122.912, "Power_Source__group_": "Solar", "Utility_Name__group_": "Independent Power Producers", "Plant_Name": "Case Creek Solar", "Nameplate_Capacity": 2.2, "Net_Generation_MWh": null, "Source_Type": 7 }, "geometry": { "type": "Point", "coordinates": [ -122.912, 45.172 ] } },
{ "type": "Feature", "properties": { "OBJECTID": 218, "Latitude": 45.023, "Longitude": -122.922, "Power_Source__group_": "Solar", "Utility_Name__group_": "Independent Power Producers", "Plant_Name": "Labish Solar LLC", "Nameplate_Capacity": 2.2, "Net_Generation_MWh": null, "Source_Type": 7 }, "geometry": { "type": "Point", "coordinates": [ -122.922, 45.023 ] } },
{ "type": "Feature", "properties": { "OBJECTID": 219, "Latitude": 45.11994, "Longitude": -122.9361, "Power_Source__group_": "Solar", "Utility_Name__group_": "Independent Power Producers", "Plant_Name": "St Louis Solar", "Nameplate_Capacity": 2.2, "Net_Generation_MWh": null, "Source_Type": 7 }, "geometry": { "type": "Point", "coordinates": [ -122.9361, 45.11994 ] } },
{ "type": "Feature", "properties": { "OBJECTID": 220, "Latitude": 44.879414, "Longitude": -122.937451, "Power_Source__group_": "Solar", "Utility_Name__group_": "Independent Power Producers", "Plant_Name": "GreenparkSolar", "Nameplate_Capacity": 1.3, "Net_Generation_MWh": null, "Source_Type": 7 }, "geometry": { "type": "Point", "coordinates": [ -122.937451, 44.879414 ] } },
{ "type": "Feature", "properties": { "OBJECTID": 221, "Latitude": 44.985, "Longitude": -122.938, "Power_Source__group_": "Solar", "Utility_Name__group_": "Independent Power Producers", "Plant_Name": "SSD Marion 3, LLC", "Nameplate_Capacity": 2.0, "Net_Generation_MWh": null, "Source_Type": 7 }, "geometry": { "type": "Point", "coordinates": [ -122.938, 44.985 ] } },
{ "type": "Feature", "properties": { "OBJECTID": 222, "Latitude": 44.826, "Longitude": -122.949, "Power_Source__group_": "Solar", "Utility_Name__group_": "Independent Power Producers", "Plant_Name": "Sheep Solar", "Nameplate_Capacity": 2.2, "Net_Generation_MWh": null, "Source_Type": 7 }, "geometry": { "type": "Point", "coordinates": [ -122.949, 44.826 ] } },
{ "type": "Feature", "properties": { "OBJECTID": 223, "Latitude": 44.965702, "Longitude": -122.954234, "Power_Source__group_": "Solar", "Utility_Name__group_": "Independent Power Producers", "Plant_Name": "Bighorn Solar", "Nameplate_Capacity": 2.2, "Net_Generation_MWh": null, "Source_Type": 7 }, "geometry": { "type": "Point", "coordinates": [ -122.954234, 44.965702 ] } },
{ "type": "Feature", "properties": { "OBJECTID": 224, "Latitude": 44.859838, "Longitude": -123.007913, "Power_Source__group_": "Solar", "Utility_Name__group_": "Independent Power Producers", "Plant_Name": "Rafael Solar", "Nameplate_Capacity": 2.2, "Net_Generation_MWh": null, "Source_Type": 7 }, "geometry": { "type": "Point", "coordinates": [ -123.007913, 44.859838 ] } },
{ "type": "Feature", "properties": { "OBJECTID": 225, "Latitude": 45.57, "Longitude": -123.05, "Power_Source__group_": "Solar", "Utility_Name__group_": "Independent Power Producers", "Plant_Name": "MilfordSolar OR", "Nameplate_Capacity": null, "Net_Generation_MWh": null, "Source_Type": 7 }, "geometry": { "type": "Point", "coordinates": [ -123.05, 45.57 ] } },
{ "type": "Feature", "properties": { "OBJECTID": 226, "Latitude": 45.033, "Longitude": -123.094, "Power_Source__group_": "Solar", "Utility_Name__group_": "Independent Power Producers", "Plant_Name": "Valley Creek Solar", "Nameplate_Capacity": 2.2, "Net_Generation_MWh": null, "Source_Type": 7 }, "geometry": { "type": "Point", "coordinates": [ -123.094, 45.033 ] } },
{ "type": "Feature", "properties": { "OBJECTID": 227, "Latitude": 45.18484, "Longitude": -123.10175, "Power_Source__group_": "Solar", "Utility_Name__group_": "Independent Power Producers", "Plant_Name": "Palmer Creek Solar, LLC", "Nameplate_Capacity": 2.3, "Net_Generation_MWh": null, "Source_Type": 7 }, "geometry": { "type": "Point", "coordinates": [ -123.10175, 45.18484 ] } },
{ "type": "Feature", "properties": { "OBJECTID": 228, "Latitude": 45.472, "Longitude": -123.129, "Power_Source__group_": "Solar", "Utility_Name__group_": "Independent Power Producers", "Plant_Name": "O'Neill Creek Solar", "Nameplate_Capacity": 2.2, "Net_Generation_MWh": null, "Source_Type": 7 }, "geometry": { "type": "Point", "coordinates": [ -123.129, 45.472 ] } },
{ "type": "Feature", "properties": { "OBJECTID": 229, "Latitude": 45.17, "Longitude": -123.135, "Power_Source__group_": "Solar", "Utility_Name__group_": "Independent Power Producers", "Plant_Name": "Dayton Cutoff Solar", "Nameplate_Capacity": 2.2, "Net_Generation_MWh": null, "Source_Type": 7 }, "geometry": { "type": "Point", "coordinates": [ -123.135, 45.17 ] } },
{ "type": "Feature", "properties": { "OBJECTID": 230, "Latitude": 45.16964, "Longitude": -123.13633, "Power_Source__group_": "Solar", "Utility_Name__group_": "Independent Power Producers", "Plant_Name": "Mill Creek Solar (OR)", "Nameplate_Capacity": 2.2, "Net_Generation_MWh": null, "Source_Type": 7 }, "geometry": { "type": "Point", "coordinates": [ -123.13633, 45.16964 ] } },
{ "type": "Feature", "properties": { "OBJECTID": 231, "Latitude": 45.112222, "Longitude": -123.234722, "Power_Source__group_": "Solar", "Utility_Name__group_": "Independent Power Producers", "Plant_Name": "Bellevue Solar Project", "Nameplate_Capacity": 1.6, "Net_Generation_MWh": null, "Source_Type": 7 }, "geometry": { "type": "Point", "coordinates": [ -123.234722, 45.112222 ] } },
{ "type": "Feature", "properties": { "OBJECTID": 232, "Latitude": 45.108889, "Longitude": -123.278611, "Power_Source__group_": "Solar", "Utility_Name__group_": "Independent Power Producers", "Plant_Name": "Yamhill Solar LLC", "Nameplate_Capacity": 1.0, "Net_Generation_MWh": null, "Source_Type": 7 }, "geometry": { "type": "Point", "coordinates": [ -123.278611, 45.108889 ] } },
{ "type": "Feature", "properties": { "OBJECTID": 233, "Latitude": 45.077, "Longitude": -123.395, "Power_Source__group_": "Solar", "Utility_Name__group_": "Independent Power Producers", "Plant_Name": "Ballston Solar LLC", "Nameplate_Capacity": 2.2, "Net_Generation_MWh": null, "Source_Type": 7 }, "geometry": { "type": "Point", "coordinates": [ -123.395, 45.077 ] } },
{ "type": "Feature", "properties": { "OBJECTID": 234, "Latitude": 45.08, "Longitude": -123.4, "Power_Source__group_": "Solar", "Utility_Name__group_": "Independent Power Producers", "Plant_Name": "SulusSolar33", "Nameplate_Capacity": null, "Net_Generation_MWh": null, "Source_Type": 7 }, "geometry": { "type": "Point", "coordinates": [ -123.4, 45.08 ] } },
{ "type": "Feature", "properties": { "OBJECTID": 235, "Latitude": 45.101804, "Longitude": -123.410102, "Power_Source__group_": "Solar", "Utility_Name__group_": "Independent Power Producers", "Plant_Name": "Butler Solar, LLC", "Nameplate_Capacity": null, "Net_Generation_MWh": null, "Source_Type": 7 }, "geometry": { "type": "Point", "coordinates": [ -123.410102, 45.101804 ] } },
{ "type": "Feature", "properties": { "OBJECTID": 236, "Latitude": 45.068, "Longitude": -123.47, "Power_Source__group_": "Solar", "Utility_Name__group_": "Independent Power Producers", "Plant_Name": "Steel Bridge Solar, LLC", "Nameplate_Capacity": 2.3, "Net_Generation_MWh": null, "Source_Type": 7 }, "geometry": { "type": "Point", "coordinates": [ -123.47, 45.068 ] } },
{ "type": "Feature", "properties": { "OBJECTID": 237, "Latitude": 45.1, "Longitude": -123.52, "Power_Source__group_": "Solar", "Utility_Name__group_": "Independent Power Producers", "Plant_Name": "SulusSolar28", "Nameplate_Capacity": 3.0, "Net_Generation_MWh": null, "Source_Type": 7 }, "geometry": { "type": "Point", "coordinates": [ -123.52, 45.1 ] } },
{ "type": "Feature", "properties": { "OBJECTID": 238, "Latitude": 45.054, "Longitude": -123.61, "Power_Source__group_": "Solar", "Utility_Name__group_": "Independent Power Producers", "Plant_Name": "Grand Ronde Solar", "Nameplate_Capacity": 2.2, "Net_Generation_MWh": null, "Source_Type": 7 }, "geometry": { "type": "Point", "coordinates": [ -123.61, 45.054 ] } },
{ "type": "Feature", "properties": { "OBJECTID": 239, "Latitude": 45.55975, "Longitude": -119.6338, "Power_Source__group_": "Wind", "Utility_Name__group_": "Portland General Electric", "Plant_Name": "Wheatridge 1", "Nameplate_Capacity": 100.0, "Net_Generation_MWh": 341609.0, "Source_Type": 8 }, "geometry": { "type": "Point", "coordinates": [ -119.6338, 45.55975 ] } },
{ "type": "Feature", "properties": { "OBJECTID": 240, "Latitude": 45.653745, "Longitude": -120.603414, "Power_Source__group_": "Wind", "Utility_Name__group_": "Portland General Electric", "Plant_Name": "Biglow Canyon Wind Farm", "Nameplate_Capacity": 449.7, "Net_Generation_MWh": 1116246.0, "Source_Type": 8 }, "geometry": { "type": "Point", "coordinates": [ -120.603414, 45.653745 ] } },
{ "type": "Feature", "properties": { "OBJECTID": 241, "Latitude": 44.418056, "Longitude": -117.255, "Power_Source__group_": "Wind", "Utility_Name__group_": "Independent Power Producers", "Plant_Name": "Prospector Windfarm (Burnt River)", "Nameplate_Capacity": 10.0, "Net_Generation_MWh": null, "Source_Type": 8 }, "geometry": { "type": "Point", "coordinates": [ -117.255, 44.418056 ] } },
{ "type": "Feature", "properties": { "OBJECTID": 242, "Latitude": 44.396944, "Longitude": -117.271944, "Power_Source__group_": "Wind", "Utility_Name__group_": "Independent Power Producers", "Plant_Name": "Lime Wind", "Nameplate_Capacity": 3.0, "Net_Generation_MWh": null, "Source_Type": 8 }, "geometry": { "type": "Point", "coordinates": [ -117.271944, 44.396944 ] } },
{ "type": "Feature", "properties": { "OBJECTID": 243, "Latitude": 44.381944, "Longitude": -117.273056, "Power_Source__group_": "Wind", "Utility_Name__group_": "Independent Power Producers", "Plant_Name": "Willow Spring Windfarm (Burnt River)", "Nameplate_Capacity": 10.0, "Net_Generation_MWh": null, "Source_Type": 8 }, "geometry": { "type": "Point", "coordinates": [ -117.273056, 44.381944 ] } },
{ "type": "Feature", "properties": { "OBJECTID": 244, "Latitude": 44.425, "Longitude": -117.273889, "Power_Source__group_": "Wind", "Utility_Name__group_": "Independent Power Producers", "Plant_Name": "Jett Creek Windfarm (Burnt River)", "Nameplate_Capacity": 10.0, "Net_Generation_MWh": null, "Source_Type": 8 }, "geometry": { "type": "Point", "coordinates": [ -117.273889, 44.425 ] } },
{ "type": "Feature", "properties": { "OBJECTID": 245, "Latitude": 44.353056, "Longitude": -117.323056, "Power_Source__group_": "Wind", "Utility_Name__group_": "Independent Power Producers", "Plant_Name": "Durbin Creek Windfarm (Burnt River)", "Nameplate_Capacity": 10.0, "Net_Generation_MWh": null, "Source_Type": 8 }, "geometry": { "type": "Point", "coordinates": [ -117.323056, 44.353056 ] } },
{ "type": "Feature", "properties": { "OBJECTID": 246, "Latitude": 44.366944, "Longitude": -117.343889, "Power_Source__group_": "Wind", "Utility_Name__group_": "Independent Power Producers", "Plant_Name": "Benson Creek Windfarm (Burnt River)", "Nameplate_Capacity": 10.0, "Net_Generation_MWh": null, "Source_Type": 8 }, "geometry": { "type": "Point", "coordinates": [ -117.343889, 44.366944 ] } },
{ "type": "Feature", "properties": { "OBJECTID": 247, "Latitude": 45.085221, "Longitude": -117.816273, "Power_Source__group_": "Wind", "Utility_Name__group_": "Independent Power Producers", "Plant_Name": "Elkhorn Valley Wind Farm", "Nameplate_Capacity": 100.7, "Net_Generation_MWh": null, "Source_Type": 8 }, "geometry": { "type": "Point", "coordinates": [ -117.816273, 45.085221 ] } },
{ "type": "Feature", "properties": { "OBJECTID": 248, "Latitude": 45.88, "Longitude": -118.463333, "Power_Source__group_": "Wind", "Utility_Name__group_": "Independent Power Producers", "Plant_Name": "Chopin Wind LLC", "Nameplate_Capacity": 10.0, "Net_Generation_MWh": null, "Source_Type": 8 }, "geometry": { "type": "Point", "coordinates": [ -118.463333, 45.88 ] } },
{ "type": "Feature", "properties": { "OBJECTID": 249, "Latitude": 45.899167, "Longitude": -118.591389, "Power_Source__group_": "Wind", "Utility_Name__group_": "Independent Power Producers", "Plant_Name": "Vansycle II Wind Energy Center", "Nameplate_Capacity": 98.9, "Net_Generation_MWh": null, "Source_Type": 8 }, "geometry": { "type": "Point", "coordinates": [ -118.591389, 45.899167 ] } },
{ "type": "Feature", "properties": { "OBJECTID": 250, "Latitude": 45.38, "Longitude": -119.3332, "Power_Source__group_": "Wind", "Utility_Name__group_": "Independent Power Producers", "Plant_Name": "*", "Nameplate_Capacity": 30.0, "Net_Generation_MWh": null, "Source_Type": 8 }, "geometry": { "type": "Point", "coordinates": [ -119.3332, 45.38 ] } },
{ "type": "Feature", "properties": { "OBJECTID": 251, "Latitude": 45.38, "Longitude": -119.33322, "Power_Source__group_": "Wind", "Utility_Name__group_": "Independent Power Producers", "Plant_Name": "Orchard Windfarm 4, LLC", "Nameplate_Capacity": 10.0, "Net_Generation_MWh": null, "Source_Type": 8 }, "geometry": { "type": "Point", "coordinates": [ -119.33322, 45.38 ] } },
{ "type": "Feature", "properties": { "OBJECTID": 252, "Latitude": 45.801999, "Longitude": -119.37212, "Power_Source__group_": "Wind", "Utility_Name__group_": "Independent Power Producers", "Plant_Name": "Perennial Wind Chaser Station", "Nameplate_Capacity": null, "Net_Generation_MWh": null, "Source_Type": 8 }, "geometry": { "type": "Point", "coordinates": [ -119.37212, 45.801999 ] } },
{ "type": "Feature", "properties": { "OBJECTID": 253, "Latitude": 45.7122, "Longitude": -119.4044, "Power_Source__group_": "Wind", "Utility_Name__group_": "Independent Power Producers", "Plant_Name": "Oregon Trail Windfarm LLC", "Nameplate_Capacity": 9.9, "Net_Generation_MWh": null, "Source_Type": 8 }, "geometry": { "type": "Point", "coordinates": [ -119.4044, 45.7122 ] } },
{ "type": "Feature", "properties": { "OBJECTID": 254, "Latitude": 45.6967, "Longitude": -119.4097, "Power_Source__group_": "Wind", "Utility_Name__group_": "Independent Power Producers", "Plant_Name": "Ward Butte Windfarm LLC", "Nameplate_Capacity": 6.6, "Net_Generation_MWh": null, "Source_Type": 8 }, "geometry": { "type": "Point", "coordinates": [ -119.4097, 45.6967 ] } },
{ "type": "Feature", "properties": { "OBJECTID": 255, "Latitude": 45.7286, "Longitude": -119.4181, "Power_Source__group_": "Wind", "Utility_Name__group_": "Independent Power Producers", "Plant_Name": "Four Corners Windfarm LLC", "Nameplate_Capacity": 10.0, "Net_Generation_MWh": null, "Source_Type": 8 }, "geometry": { "type": "Point", "coordinates": [ -119.4181, 45.7286 ] } },
{ "type": "Feature", "properties": { "OBJECTID": 256, "Latitude": 45.6447, "Longitude": -119.4533, "Power_Source__group_": "Wind", "Utility_Name__group_": "Independent Power Producers", "Plant_Name": "Four Mile Canyon Windfarm LLC", "Nameplate_Capacity": 10.0, "Net_Generation_MWh": null, "Source_Type": 8 }, "geometry": { "type": "Point", "coordinates": [ -119.4533, 45.6447 ] } },
{ "type": "Feature", "properties": { "OBJECTID": 257, "Latitude": 45.6447, "Longitude": -119.4767, "Power_Source__group_": "Wind", "Utility_Name__group_": "Independent Power Producers", "Plant_Name": "Sand Ranch Windfarm LLC", "Nameplate_Capacity": 9.9, "Net_Generation_MWh": null, "Source_Type": 8 }, "geometry": { "type": "Point", "coordinates": [ -119.4767, 45.6447 ] } },
{ "type": "Feature", "properties": { "OBJECTID": 258, "Latitude": 45.6542, "Longitude": -119.4869, "Power_Source__group_": "Wind", "Utility_Name__group_": "Independent Power Producers", "Plant_Name": "Pacific Canyon Windfarm LLC", "Nameplate_Capacity": 8.3, "Net_Generation_MWh": null, "Source_Type": 8 }, "geometry": { "type": "Point", "coordinates": [ -119.4869, 45.6542 ] } },
{ "type": "Feature", "properties": { "OBJECTID": 259, "Latitude": 45.55975, "Longitude": -119.6338, "Power_Source__group_": "Wind", "Utility_Name__group_": "Independent Power Producers", "Plant_Name": "Wheatridge Hybrid", "Nameplate_Capacity": 200.0, "Net_Generation_MWh": 713534.0, "Source_Type": 8 }, "geometry": { "type": "Point", "coordinates": [ -119.6338, 45.55975 ] } },
{ "type": "Feature", "properties": { "OBJECTID": 260, "Latitude": 45.58555, "Longitude": -120.008249, "Power_Source__group_": "Wind", "Utility_Name__group_": "Independent Power Producers", "Plant_Name": "Horseshoe Bend Wind LLC", "Nameplate_Capacity": 290.0, "Net_Generation_MWh": 621213.0, "Source_Type": 8 }, "geometry": { "type": "Point", "coordinates": [ -120.008249, 45.58555 ] } },
{ "type": "Feature", "properties": { "OBJECTID": 261, "Latitude": 45.706262, "Longitude": -120.079987, "Power_Source__group_": "Wind", "Utility_Name__group_": "Independent Power Producers", "Plant_Name": "South Hurlburt Wind LLC", "Nameplate_Capacity": 290.0, "Net_Generation_MWh": 622783.0, "Source_Type": 8 }, "geometry": { "type": "Point", "coordinates": [ -120.079987, 45.706262 ] } },
{ "type": "Feature", "properties": { "OBJECTID": 262, "Latitude": 45.731611, "Longitude": -120.083466, "Power_Source__group_": "Wind", "Utility_Name__group_": "Independent Power Producers", "Plant_Name": "North Hurlburt Wind LLC", "Nameplate_Capacity": 265.0, "Net_Generation_MWh": 569666.0, "Source_Type": 8 }, "geometry": { "type": "Point", "coordinates": [ -120.083466, 45.731611 ] } },
{ "type": "Feature", "properties": { "OBJECTID": 263, "Latitude": 45.5857, "Longitude": -120.0904, "Power_Source__group_": "Wind", "Utility_Name__group_": "Independent Power Producers", "Plant_Name": "Montague Wind Power Facility LLC", "Nameplate_Capacity": 200.0, "Net_Generation_MWh": 528639.0, "Source_Type": 8 }, "geometry": { "type": "Point", "coordinates": [ -120.0904, 45.5857 ] } },
{ "type": "Feature", "properties": { "OBJECTID": 264, "Latitude": 45.7119, "Longitude": -120.125, "Power_Source__group_": "Wind", "Utility_Name__group_": "Independent Power Producers", "Plant_Name": "Pebble Springs Wind LLC", "Nameplate_Capacity": 98.7, "Net_Generation_MWh": null, "Source_Type": 8 }, "geometry": { "type": "Point", "coordinates": [ -120.125, 45.7119 ] } },
{ "type": "Feature", "properties": { "OBJECTID": 265, "Latitude": 45.7167, "Longitude": -120.2008, "Power_Source__group_": "Wind", "Utility_Name__group_": "Independent Power Producers", "Plant_Name": "Arlington Wind Power Project", "Nameplate_Capacity": 103.0, "Net_Generation_MWh": null, "Source_Type": 8 }, "geometry": { "type": "Point", "coordinates": [ -120.2008, 45.7167 ] } },
{ "type": "Feature", "properties": { "OBJECTID": 266, "Latitude": 45.651, "Longitude": -120.2598, "Power_Source__group_": "Wind", "Utility_Name__group_": "Independent Power Producers", "Plant_Name": "Leaning Juniper Wind Power II", "Nameplate_Capacity": 201.0, "Net_Generation_MWh": null, "Source_Type": 8 }, "geometry": { "type": "Point", "coordinates": [ -120.2598, 45.651 ] } },
{ "type": "Feature", "properties": { "OBJECTID": 267, "Latitude": 45.2766, "Longitude": -120.2794, "Power_Source__group_": "Wind", "Utility_Name__group_": "Independent Power Producers", "Plant_Name": "Condon Windpower LLC", "Nameplate_Capacity": 49.8, "Net_Generation_MWh": null, "Source_Type": 8 }, "geometry": { "type": "Point", "coordinates": [ -120.2794, 45.2766 ] } },
{ "type": "Feature", "properties": { "OBJECTID": 268, "Latitude": 45.675804, "Longitude": -120.31832, "Power_Source__group_": "Wind", "Utility_Name__group_": "Independent Power Producers", "Plant_Name": "Wheat Field Wind Power Project", "Nameplate_Capacity": 97.0, "Net_Generation_MWh": null, "Source_Type": 8 }, "geometry": { "type": "Point", "coordinates": [ -120.31832, 45.675804 ] } },
{ "type": "Feature", "properties": { "OBJECTID": 269, "Latitude": 45.51, "Longitude": -120.48, "Power_Source__group_": "Wind", "Utility_Name__group_": "Independent Power Producers", "Plant_Name": "Star Point Wind Project LLC", "Nameplate_Capacity": 98.7, "Net_Generation_MWh": null, "Source_Type": 8 }, "geometry": { "type": "Point", "coordinates": [ -120.48, 45.51 ] } },
{ "type": "Feature", "properties": { "OBJECTID": 270, "Latitude": 45.5836, "Longitude": -120.5042, "Power_Source__group_": "Wind", "Utility_Name__group_": "Independent Power Producers", "Plant_Name": "Klondike Windpower III", "Nameplate_Capacity": 297.5, "Net_Generation_MWh": 853185.0, "Source_Type": 8 }, "geometry": { "type": "Point", "coordinates": [ -120.5042, 45.5836 ] } },
{ "type": "Feature", "properties": { "OBJECTID": 271, "Latitude": 45.5563, "Longitude": -120.5507, "Power_Source__group_": "Wind", "Utility_Name__group_": "Independent Power Producers", "Plant_Name": "Klondike Wind Power", "Nameplate_Capacity": 24.5, "Net_Generation_MWh": null, "Source_Type": 8 }, "geometry": { "type": "Point", "coordinates": [ -120.5507, 45.5563 ] } },
{ "type": "Feature", "properties": { "OBJECTID": 272, "Latitude": 45.52, "Longitude": -120.5744, "Power_Source__group_": "Wind", "Utility_Name__group_": "Independent Power Producers", "Plant_Name": "Hay Canyon Wind Power LLC", "Nameplate_Capacity": 100.8, "Net_Generation_MWh": null, "Source_Type": 8 }, "geometry": { "type": "Point", "coordinates": [ -120.5744, 45.52 ] } },
{ "type": "Feature", "properties": { "OBJECTID": 273, "Latitude": 45.571, "Longitude": -120.593, "Power_Source__group_": "Wind", "Utility_Name__group_": "Independent Power Producers", "Plant_Name": "Klondike Windpower II", "Nameplate_Capacity": 75.0, "Net_Generation_MWh": null, "Source_Type": 8 }, "geometry": { "type": "Point", "coordinates": [ -120.593, 45.571 ] } },
{ "type": "Feature", "properties": { "OBJECTID": 274, "Latitude": 45.613061, "Longitude": -120.616906, "Power_Source__group_": "Wind", "Utility_Name__group_": "Independent Power Producers", "Plant_Name": "PaTu Wind Farm LLC", "Nameplate_Capacity": 9.0, "Net_Generation_MWh": null, "Source_Type": 8 }, "geometry": { "type": "Point", "coordinates": [ -120.616906, 45.613061 ] } },
{ "type": "Feature", "properties": { "OBJECTID": 275, "Latitude": 45.562715, "Longitude": -120.708464, "Power_Source__group_": "Wind", "Utility_Name__group_": "Independent Power Producers", "Plant_Name": "Golden Hill Wind", "Nameplate_Capacity": null, "Net_Generation_MWh": null, "Source_Type": 8 }, "geometry": { "type": "Point", "coordinates": [ -120.708464, 45.562715 ] } },
{ "type": "Feature", "properties": { "OBJECTID": 276, "Latitude": 45.451667, "Longitude": -120.941667, "Power_Source__group_": "Wind", "Utility_Name__group_": "Independent Power Producers", "Plant_Name": "Summit Ridge I Wind Farm", "Nameplate_Capacity": null, "Net_Generation_MWh": null, "Source_Type": 8 }, "geometry": { "type": "Point", "coordinates": [ -120.941667, 45.451667 ] } }
]
}
